$GPRMC,023832.00,A,3730.36955,N,12702.41883,E,0.116,,111124,,,A*73

$GPVTG,,T,,M,0.116,N,0.216,K,A*20

$GPGGA,023832.00,3730.36955,N,12702.41883,E,1,04,2.78,93.9,M,18.6,M,,*6A

$GPGSA,A,3,10,23,25,15,,,,,,,,,5.55,2.78,4.80*05

$GPGSV,2,1,06,10,60,303,33,12,,,15,15,19,101,29,21,03,324,*4E

$GPGSV,2,2,06,23,68,181,25,25,34,165,30*7E

$GPGLL,3730.36955,N,12702.41883,E,023832.00,A,A*6A

$GPRMC,023833.00,A,3730.36987,N,12702.41946,E,0.047,,111124,,,A*70

$GPVTG,,T,,M,0.047,N,0.087,K,A*2F

$GPGGA,023833.00,3730.36987,N,12702.41946,E,1,04,2.78,95.3,M,18.6,M,,*60

$GPGSA,A,3,10,23,25,15,,,,,,,,,5.55,2.78,4.80*05

$GPGSV,2,1,06,10,60,303,34,12,,,14,15,19,101,29,21,03,324,*48

$GPGSV,2,2,06,23,68,181,25,25,34,165,31*7F

$GPGLL,3730.36987,N,12702.41946,E,023833.00,A,A*6C

$GPRMC,023834.00,A,3730.36991,N,12702.41980,E,0.104,,111124,,,A*7C

$GPVTG,,T,,M,0.104,N,0.193,K,A*2D

$GPGGA,023834.00,3730.36991,N,12702.41980,E,1,04,2.79,95.8,M,18.6,M,,*60

$GPGSA,A,3,10,23,25,15,,,,,,,,,5.55,2.79,4.81*05

$GPGSV,2,1,06,10,60,303,34,12,,,17,15,19,101,28,21,03,324,*4A

$GPGSV,2,2,06,23,68,181,26,25,34,165,31*7C

$GPGLL,3730.36991,N,12702.41980,E,023834.00,A,A*66

$GPRMC,023835.00,A,3730.36994,N,12702.42000,E,0.051,,111124,,,A*7B

$GPVTG,,T,,M,0.051,N,0.094,K,A*2A

$GPGGA,023835.00,3730.36994,N,12702.42000,E,1,04,2.79,96.0,M,18.6,M,,*6D

$GPGSA,A,3,10,23,25,15,,,,,,,,,5.56,2.79,4.81*06

$GPGSV,2,1,06,10,60,303,34,12,,,18,15,19,101,28,21,03,324,*45

$GPGSV,2,2,06,23,68,181,26,25,34,165,31*7C

$GPGLL,3730.36994,N,12702.42000,E,023835.00,A,A*60

$GPRMC,023836.00,A,3730.37001,N,12702.42026,E,0.120,,111124,,,A*7F

$GPVTG,,T,,M,0.120,N,0.222,K,A*22

$GPGGA,023836.00,3730.37001,N,12702.42026,E,1,04,2.79,96.3,M,18.6,M,,*6D

$GPGSA,A,3,10,23,25,15,,,,,,,,,5.56,2.79,4.81*06

$GPGSV,2,1,06,10,60,303,33,12,,,17,15,19,101,27,21,03,324,*42

$GPGSV,2,2,06,23,68,181,26,25,34,165,31*7C

$GPGLL,3730.37001,N,12702.42026,E,023836.00,A,A*63

$GPRMC,023837.00,A,3730.37002,N,12702.42026,E,0.117,,111124,,,A*79

$GPVTG,,T,,M,0.117,N,0.217,K,A*20

$GPGGA,023837.00,3730.37002,N,12702.42026,E,1,04,2.79,95.9,M,18.6,M,,*66

$GPGSA,A,3,10,23,25,15,,,,,,,,,5.56,2.79,4.81*06

$GPGSV,2,1,06,10,60,303,34,12,,,16,15,19,101,27,21,03,324,*44

$GPGSV,2,2,06,23,68,181,26,25,34,165,31*7C

$GPGLL,3730.37002,N,12702.42026,E,023837.00,A,A*61

$GPRMC,023838.00,A,3730.37004,N,12702.42026,E,0.205,,111124,,,A*70

$GPVTG,,T,,M,0.205,N,0.380,K,A*2F

$GPGGA,023838.00,3730.37004,N,12702.42026,E,1,04,2.79,95.7,M,18.6,M,,*61

$GPGSA,A,3,10,23,25,15,,,,,,,,,5.57,2.79,4.82*04

$GPGSV,2,1,06,10,60,303,34,12,,,17,15,19,101,28,21,03,324,*4A

$GPGSV,2,2,06,23,68,181,26,25,34,165,30*7D

$GPGLL,3730.37004,N,12702.42026,E,023838.00,A,A*68

$GPRMC,023839.00,A,3730.37003,N,12702.42032,E,0.153,,111124,,,A*73

$GPVTG,,T,,M,0.153,N,0.283,K,A*2D

$GPGGA,023839.00,3730.37003,N,12702.42032,E,1,04,2.79,95.6,M,18.6,M,,*63

$GPGSA,A,3,10,23,25,15,,,,,,,,,5.57,2.79,4.82*04

$GPGSV,2,1,06,10,60,303,33,12,,,18,15,19,101,28,21,03,324,*42

$GPGSV,2,2,06,23,68,181,25,25,34,165,31*7F

$GPGLL,3730.37003,N,12702.42032,E,023839.00,A,A*6B

$GPRMC,023840.00,A,3730.37010,N,12702.42048,E,0.331,,111124,,,A*74

$GPVTG,,T,,M,0.331,N,0.613,K,A*26

$GPGGA,023840.00,3730.37010,N,12702.42048,E,1,04,2.79,95.7,M,18.6,M,,*63

$GPGSA,A,3,10,23,25,15,,,,,,,,,5.57,2.79,4.82*04

$GPGSV,2,1,06,10,60,303,33,12,,,17,15,19,101,28,21,03,324,*4D

$GPGSV,2,2,06,23,68,181,26,25,34,165,31*7C

$GPGLL,3730.37010,N,12702.42048,E,023840.00,A,A*6A

$GPRMC,023841.00,A,3730.37017,N,12702.42060,E,0.344,,111124,,,A*7A

$GPVTG,,T,,M,0.344,N,0.637,K,A*22

$GPGGA,023841.00,3730.37017,N,12702.42060,E,1,04,2.80,95.6,M,18.6,M,,*68

$GPGSA,A,3,10,23,25,15,,,,,,,,,5.58,2.80,4.82*0D

$GPGSV,2,1,06,10,60,303,33,12,,,15,15,19,101,29,21,03,324,*4E

$GPGSV,2,2,06,23,68,181,25,25,34,165,31*7F

$GPGLL,3730.37017,N,12702.42060,E,023841.00,A,A*66

$GPRMC,023842.00,A,3730.37019,N,12702.42070,E,0.200,,111124,,,A*77

$GPVTG,,T,,M,0.200,N,0.371,K,A*24

$GPGGA,023842.00,3730.37019,N,12702.42070,E,1,04,2.80,95.8,M,18.6,M,,*6A

$GPGSA,A,3,10,23,25,15,,,,,,,,,5.58,2.80,4.83*0C

$GPGSV,2,1,06,10,60,303,33,12,,,14,15,19,101,30,21,03,324,*47

$GPGSV,2,2,06,23,68,181,25,25,34,165,32*7C

$GPGLL,3730.37019,N,12702.42070,E,023842.00,A,A*6A

$GPRMC,023843.00,A,3730.37024,N,12702.42085,E,0.190,,111124,,,A*78

$GPVTG,,T,,M,0.190,N,0.351,K,A*2C

$GPGGA,023843.00,3730.37024,N,12702.42085,E,1,04,2.80,96.1,M,18.6,M,,*65

$GPGSA,A,3,10,23,25,15,,,,,,,,,5.58,2.80,4.83*0C

$GPGSV,2,1,06,10,60,303,33,12,,,14,15,19,101,30,21,03,324,*47

$GPGSV,2,2,06,23,68,181,25,25,34,165,32*7C

$GPGLL,3730.37024,N,12702.42085,E,023843.00,A,A*6F

$GPRMC,023844.00,A,3730.37027,N,12702.42098,E,0.166,,111124,,,A*79

$GPVTG,,T,,M,0.166,N,0.308,K,A*29

$GPGGA,023844.00,3730.37027,N,12702.42098,E,1,04,2.80,96.3,M,18.6,M,,*6F

$GPGSA,A,3,10,23,25,15,,,,,,,,,5.59,2.80,4.83*0D

$GPGSV,2,1,06,10,60,303,32,12,,,15,15,19,101,31,21,03,324,*46

$GPGSV,2,2,06,23,68,181,25,25,34,165,32*7C

$GPGLL,3730.37027,N,12702.42098,E,023844.00,A,A*67

$GPRMC,023845.00,A,3730.37036,N,12702.42120,E,0.146,,111124,,,A*78

$GPVTG,,T,,M,0.146,N,0.270,K,A*25

$GPGGA,023845.00,3730.37036,N,12702.42120,E,1,04,2.80,96.5,M,18.6,M,,*6A

$GPGSA,A,3,10,23,25,15,,,,,,,,,5.59,2.80,4.84*0A

$GPGSV,2,1,06,10,60,303,33,12,,,15,15,19,101,30,21,03,324,*46

$GPGSV,2,2,06,23,68,181,25,25,34,165,32*7C

$GPGLL,3730.37036,N,12702.42120,E,023845.00,A,A*64

$GPRMC,023846.00,A,3730.37043,N,12702.42144,E,0.058,,111124,,,A*75

$GPVTG,,T,,M,0.058,N,0.107,K,A*28

$GPGGA,023846.00,3730.37043,N,12702.42144,E,1,04,2.80,97.0,M,18.6,M,,*6D

$GPGSA,A,3,10,23,25,15,,,,,,,,,5.59,2.80,4.84*0A

$GPGSV,2,1,06,10,60,303,33,12,,,15,15,19,101,30,21,03,324,*46

$GPGSV,2,2,06,23,68,181,26,25,34,165,33*7E

$GPGLL,3730.37043,N,12702.42144,E,023846.00,A,A*67

$GPRMC,023847.00,A,3730.37050,N,12702.42179,E,0.061,,111124,,,A*72

$GPVTG,,T,,M,0.061,N,0.114,K,A*20

$GPGGA,023847.00,3730.37050,N,12702.42179,E,1,04,2.81,97.7,M,18.6,M,,*66

$GPGSA,A,3,10,23,25,15,,,,,,,,,5.60,2.81,4.84*01

$GPGSV,2,1,06,10,60,303,33,12,,,15,15,19,101,30,21,03,324,*46

$GPGSV,2,2,06,23,68,181,25,25,34,165,33*7D

$GPGLL,3730.37050,N,12702.42179,E,023847.00,A,A*6A

$GPRMC,023848.00,A,3730.37060,N,12702.42215,E,0.025,,111124,,,A*77

$GPVTG,,T,,M,0.025,N,0.046,K,A*26

$GPGGA,023848.00,3730.37060,N,12702.42215,E,1,04,2.81,98.5,M,18.6,M,,*6E

$GPGSA,A,3,10,23,25,15,,,,,,,,,5.60,2.81,4.84*01

$GPGSV,2,1,06,10,60,303,33,12,,,16,15,19,101,28,21,03,324,*4C

$GPGSV,2,2,06,23,68,181,25,25,34,165,33*7D

$GPGLL,3730.37060,N,12702.42215,E,023848.00,A,A*6F

$GPRMC,023849.00,A,3730.37067,N,12702.42246,E,0.145,,111124,,,A*70

$GPVTG,,T,,M,0.145,N,0.269,K,A*2E

$GPGGA,023849.00,3730.37067,N,12702.42246,E,1,04,2.81,99.0,M,18.6,M,,*6A

$GPGSA,A,3,10,23,25,15,,,,,,,,,5.60,2.81,4.85*00

$GPGSV,2,1,06,10,60,303,33,12,,,18,15,19,101,28,21,03,324,*42

$GPGSV,2,2,06,23,68,181,26,25,35,165,33*7F

$GPGLL,3730.37067,N,12702.42246,E,023849.00,A,A*6F

$GPRMC,023850.00,A,3730.37072,N,12702.42269,E,0.073,,111124,,,A*75

$GPVTG,,T,,M,0.073,N,0.136,K,A*23

$GPGGA,023850.00,3730.37072,N,12702.42269,E,1,04,2.81,99.4,M,18.6,M,,*6F

$GPGSA,A,3,10,23,25,15,,,,,,,,,5.61,2.81,4.85*01

$GPGSV,2,1,06,10,60,303,33,12,,,18,15,19,101,27,21,03,324,*4D

$GPGSV,2,2,06,23,68,181,26,25,35,165,33*7F

$GPGLL,3730.37072,N,12702.42269,E,023850.00,A,A*6E

$GPRMC,023851.00,A,3730.37083,N,12702.42290,E,0.108,,111124,,,A*71

$GPVTG,,T,,M,0.108,N,0.200,K,A*28

$GPGGA,023851.00,3730.37083,N,12702.42290,E,1,04,2.81,99.6,M,18.6,M,,*64

$GPGSA,A,3,10,23,25,15,,,,,,,,,5.61,2.81,4.85*01

$GPGSV,2,1,06,10,60,303,33,12,,,19,15,19,101,27,21,03,324,*4C

$GPGSV,2,2,06,23,68,181,26,25,35,165,34*78

$GPGLL,3730.37083,N,12702.42290,E,023851.00,A,A*67

$GPRMC,023852.00,A,3730.37090,N,12702.42316,E,0.131,,111124,,,A*75

$GPVTG,,T,,M,0.131,N,0.242,K,A*24

$GPGGA,023852.00,3730.37090,N,12702.42316,E,1,04,2.81,100.0,M,18.6,M,,*5D

$GPGSA,A,3,10,23,25,15,,,,,,,,,5.61,2.81,4.86*02

$GPGSV,2,1,06,10,60,303,34,12,,,18,15,19,101,27,21,03,324,*4A

$GPGSV,2,2,06,23,68,181,27,25,35,165,34*79

$GPGLL,3730.37090,N,12702.42316,E,023852.00,A,A*69

$GPRMC,023853.00,A,3730.37100,N,12702.42332,E,0.044,,111124,,,A*79

$GPVTG,,T,,M,0.044,N,0.081,K,A*2A

$GPGGA,023853.00,3730.37100,N,12702.42332,E,1,04,2.82,100.2,M,18.6,M,,*53

$GPGSA,A,3,10,23,25,15,,,,,,,,,5.62,2.82,4.86*02

$GPGSV,2,1,06,10,60,303,33,12,,,18,15,19,101,27,21,03,324,*4D

$GPGSV,2,2,06,23,68,181,27,25,35,165,34*79

$GPGLL,3730.37100,N,12702.42332,E,023853.00,A,A*66

$GPRMC,023854.00,A,3730.37111,N,12702.42348,E,0.074,,111124,,,A*70

$GPVTG,,T,,M,0.074,N,0.138,K,A*2A

$GPGGA,023854.00,3730.37111,N,12702.42348,E,1,04,2.82,100.3,M,18.6,M,,*58

$GPGSA,A,3,10,23,25,15,,,,,,,,,5.62,2.82,4.86*02

$GPGSV,2,1,06,10,60,303,33,12,,,17,15,19,101,27,21,03,324,*42

$GPGSV,2,2,06,23,68,181,28,25,35,165,34*76

$GPGLL,3730.37111,N,12702.42348,E,023854.00,A,A*6C

$GPRMC,023855.00,A,3730.37122,N,12702.42349,E,0.054,,111124,,,A*72

$GPVTG,,T,,M,0.054,N,0.101,K,A*22

$GPGGA,023855.00,3730.37122,N,12702.42349,E,1,04,2.82,99.9,M,18.6,M,,*63

$GPGSA,A,3,10,23,25,15,,,,,,,,,5.62,2.82,4.86*02

$GPGSV,2,1,06,10,60,303,32,12,,,15,15,19,101,27,21,03,324,*41

$GPGSV,2,2,06,23,68,181,28,25,35,165,34*76

$GPGLL,3730.37122,N,12702.42349,E,023855.00,A,A*6C

$GPRMC,023856.00,A,3730.37130,N,12702.42345,E,0.028,,111124,,,A*75

$GPVTG,,T,,M,0.028,N,0.052,K,A*2E

$GPGGA,023856.00,3730.37130,N,12702.42345,E,1,04,2.82,99.5,M,18.6,M,,*63

$GPGSA,A,3,10,23,25,15,,,,,,,,,5.63,2.82,4.87*02

$GPGSV,2,1,06,10,60,303,32,12,,,15,15,19,101,27,21,03,324,*41

$GPGSV,2,2,06,23,68,181,28,25,35,165,33*71

$GPGLL,3730.37130,N,12702.42345,E,023856.00,A,A*60

$GPRMC,023857.00,A,3730.37136,N,12702.42343,E,0.043,,111124,,,A*79

$GPVTG,,T,,M,0.043,N,0.080,K,A*2C

$GPGGA,023857.00,3730.37136,N,12702.42343,E,1,04,2.82,99.1,M,18.6,M,,*66

$GPGSA,A,3,10,23,25,15,,,,,,,,,5.63,2.82,4.87*02

$GPGSV,2,1,06,10,60,303,32,12,,,16,15,19,101,28,21,03,324,*4D

$GPGSV,2,2,06,23,68,181,27,25,35,165,33*7E

$GPGLL,3730.37136,N,12702.42343,E,023857.00,A,A*61

$GPRMC,023858.00,A,3730.37142,N,12702.42348,E,0.061,,111124,,,A*7E

$GPVTG,,T,,M,0.061,N,0.112,K,A*26

$GPGGA,023858.00,3730.37142,N,12702.42348,E,1,04,2.82,99.0,M,18.6,M,,*60

$GPGSA,A,3,10,23,25,15,,,,,,,,,5.63,2.82,4.87*02

$GPGSV,2,1,06,10,60,303,32,12,,,17,15,19,101,28,21,03,324,*4C

$GPGSV,2,2,06,23,68,181,27,25,35,165,33*7E

$GPGLL,3730.37142,N,12702.42348,E,023858.00,A,A*66

$GPRMC,023859.00,A,3730.37147,N,12702.42364,E,0.052,,111124,,,A*74

$GPVTG,,T,,M,0.052,N,0.096,K,A*2B

$GPGGA,023859.00,3730.37147,N,12702.42364,E,1,04,2.83,99.2,M,18.6,M,,*69

$GPGSA,A,3,10,23,25,15,,,,,,,,,5.64,2.83,4.88*0B

$GPGSV,2,1,06,10,60,303,32,12,,,18,15,19,101,28,21,03,324,*43

$GPGSV,2,2,06,23,68,181,26,25,35,165,33*7F

$GPGLL,3730.37147,N,12702.42364,E,023859.00,A,A*6C

$GPRMC,023900.00,A,3730.37151,N,12702.42371,E,0.115,,111124,,,A*78

$GPVTG,,T,,M,0.115,N,0.214,K,A*21

$GPGGA,023900.00,3730.37151,N,12702.42371,E,1,04,2.83,99.4,M,18.6,M,,*61

$GPGSA,A,3,10,23,25,15,,,,,,,,,5.64,2.83,4.88*0B

$GPGSV,2,1,06,10,60,303,32,12,,,20,15,19,101,28,21,03,324,*48

$GPGSV,2,2,06,23,68,181,26,25,35,165,33*7F

$GPGLL,3730.37151,N,12702.42371,E,023900.00,A,A*62

$GPRMC,023901.00,A,3730.37157,N,12702.42370,E,0.030,,111124,,,A*78

$GPVTG,,T,,M,0.030,N,0.056,K,A*23

$GPGGA,023901.00,3730.37157,N,12702.42370,E,1,04,2.83,99.2,M,18.6,M,,*61

$GPGSA,A,3,10,23,25,15,,,,,,,,,5.64,2.83,4.88*0B

$GPGSV,2,1,06,10,60,303,33,12,,,20,15,19,101,29,21,03,324,*48

$GPGSV,2,2,06,23,68,181,26,25,35,165,33*7F

$GPGLL,3730.37157,N,12702.42370,E,023901.00,A,A*64

$GPRMC,023902.00,A,3730.37157,N,12702.42376,E,0.079,,111124,,,A*70

$GPVTG,,T,,M,0.079,N,0.147,K,A*2F

$GPGGA,023902.00,3730.37157,N,12702.42376,E,1,04,2.83,99.5,M,18.6,M,,*63

$GPGSA,A,3,10,23,25,15,,,,,,,,,5.65,2.83,4.88*0A

$GPGSV,2,1,06,10,60,303,33,12,,,21,15,19,101,29,21,03,324,*49

$GPGSV,2,2,06,23,68,181,26,25,35,165,33*7F

$GPGLL,3730.37157,N,12702.42376,E,023902.00,A,A*61

$GPRMC,023903.00,A,3730.37157,N,12702.42374,E,0.074,,111124,,,A*7E

$GPVTG,,T,,M,0.074,N,0.138,K,A*2A

$GPGGA,023903.00,3730.37157,N,12702.42374,E,1,04,2.83,99.5,M,18.6,M,,*60

$GPGSA,A,3,10,23,25,15,,,,,,,,,5.65,2.83,4.89*0B

$GPGSV,2,1,06,10,60,303,33,12,,,21,15,19,101,29,21,03,324,*49

$GPGSV,2,2,06,23,68,181,26,25,35,165,33*7F

$GPGLL,3730.37157,N,12702.42374,E,023903.00,A,A*62

$GPRMC,023904.00,A,3730.37156,N,12702.42370,E,0.237,,111124,,,A*79

$GPVTG,,T,,M,0.237,N,0.438,K,A*2A

$GPGGA,023904.00,3730.37156,N,12702.42370,E,1,04,2.83,99.5,M,18.6,M,,*62

$GPGSA,A,3,10,23,25,15,,,,,,,,,5.65,2.83,4.89*0B

$GPGSV,2,1,06,10,60,303,33,12,,,20,15,19,101,29,21,03,324,*48

$GPGSV,2,2,06,23,68,181,25,25,35,165,33*7C

$GPGLL,3730.37156,N,12702.42370,E,023904.00,A,A*60

$GPRMC,023905.00,A,3730.37158,N,12702.42373,E,0.107,,111124,,,A*75

$GPVTG,,T,,M,0.107,N,0.198,K,A*25

$GPGGA,023905.00,3730.37158,N,12702.42373,E,1,04,2.84,99.5,M,18.6,M,,*69

$GPGSA,A,3,10,23,25,15,,,,,,,,,5.66,2.84,4.89*0F

$GPGSV,2,1,06,10,60,303,33,12,,,20,15,19,101,29,21,03,324,*48

$GPGSV,2,2,06,23,68,181,26,25,35,165,33*7F

$GPGLL,3730.37158,N,12702.42373,E,023905.00,A,A*6C

$GPRMC,023906.00,A,3730.37159,N,12702.42383,E,0.087,,111124,,,A*71

$GPVTG,,T,,M,0.087,N,0.161,K,A*2A

$GPGGA,023906.00,3730.37159,N,12702.42383,E,1,04,2.84,99.7,M,18.6,M,,*66

$GPGSA,A,3,10,23,25,15,,,,,,,,,5.66,2.84,4.90*07

$GPGSV,2,1,06,10,60,303,33,12,,,20,15,19,101,29,21,03,324,*48

$GPGSV,2,2,06,23,68,181,26,25,35,165,33*7F

$GPGLL,3730.37159,N,12702.42383,E,023906.00,A,A*61

$GPRMC,023907.00,A,3730.37162,N,12702.42398,E,0.156,,111124,,,A*7F

$GPVTG,,T,,M,0.156,N,0.289,K,A*22

$GPGGA,023907.00,3730.37162,N,12702.42398,E,1,04,2.84,100.0,M,18.6,M,,*53

$GPGSA,A,3,10,23,25,15,,,,,,,,,5.66,2.84,4.90*07

$GPGSV,2,1,06,10,60,303,33,12,,,20,15,19,101,29,21,03,324,*48

$GPGSV,2,2,06,23,68,181,25,25,35,165,32*7D

$GPGLL,3730.37162,N,12702.42398,E,023907.00,A,A*62

$GPRMC,023908.00,A,3730.37163,N,12702.42410,E,0.168,,111124,,,A*7B

$GPVTG,,T,,M,0.168,N,0.312,K,A*2C

$GPGGA,023908.00,3730.37163,N,12702.42410,E,1,04,2.84,100.2,M,18.6,M,,*58

$GPGSA,A,3,10,23,25,15,,,,,,,,,5.67,2.84,4.90*06

$GPGSV,2,1,06,10,60,303,33,12,,,20,15,19,101,29,21,03,324,*48

$GPGSV,2,2,06,23,68,181,25,25,35,165,32*7D

$GPGLL,3730.37163,N,12702.42410,E,023908.00,A,A*6B

$GPRMC,023909.00,A,3730.37167,N,12702.42427,E,0.144,,111124,,,A*74

$GPVTG,,T,,M,0.144,N,0.266,K,A*20

$GPGGA,023909.00,3730.37167,N,12702.42427,E,1,04,2.84,100.4,M,18.6,M,,*5F

$GPGSA,A,3,10,23,25,15,,,,,,,,,5.67,2.84,4.90*06

$GPGSV,2,1,06,10,60,303,33,12,,,20,15,19,101,28,21,03,324,*49

$GPGSV,2,2,06,23,68,181,26,25,35,165,33*7F

$GPGLL,3730.37167,N,12702.42427,E,023909.00,A,A*6A

$GPRMC,023910.00,A,3730.37173,N,12702.42446,E,0.099,,111124,,,A*7F

$GPVTG,,T,,M,0.099,N,0.184,K,A*2E

$GPGGA,023910.00,3730.37173,N,12702.42446,E,1,04,2.85,100.7,M,18.6,M,,*57

$GPGSA,A,3,10,23,25,15,,,,,,,,,5.67,2.85,4.91*06

$GPGSV,2,1,06,10,60,303,32,12,,,20,15,19,101,28,21,03,324,*48

$GPGSV,2,2,06,23,68,181,26,25,35,165,32*7E

$GPGLL,3730.37173,N,12702.42446,E,023910.00,A,A*60

$GPRMC,023911.00,A,3730.37176,N,12702.42453,E,0.237,,111124,,,A*79

$GPVTG,,T,,M,0.237,N,0.439,K,A*2B

$GPGGA,023911.00,3730.37176,N,12702.42453,E,1,04,2.85,100.8,M,18.6,M,,*58

$GPGSA,A,3,10,23,25,15,,,,,,,,,5.68,2.85,4.91*09

$GPGSV,2,1,06,10,60,303,31,12,,,21,15,19,101,28,21,03,324,*4A

$GPGSV,2,2,06,23,68,181,26,25,35,165,32*7E

$GPGLL,3730.37176,N,12702.42453,E,023911.00,A,A*60

$GPRMC,023912.00,A,3730.37181,N,12702.42457,E,0.114,,111124,,,A*74

$GPVTG,,T,,M,0.114,N,0.211,K,A*25

$GPGGA,023912.00,3730.37181,N,12702.42457,E,1,04,2.85,100.8,M,18.6,M,,*57

$GPGSA,A,3,10,23,25,15,,,,,,,,,5.68,2.85,4.91*09

$GPGSV,2,1,06,10,60,303,31,12,,,22,15,19,101,27,21,03,324,*46

$GPGSV,2,2,06,23,68,181,26,25,35,165,32*7E

$GPGLL,3730.37181,N,12702.42457,E,023912.00,A,A*6F

$GPRMC,023913.00,A,3730.37184,N,12702.42459,E,0.136,,111124,,,A*7E

$GPVTG,,T,,M,0.136,N,0.251,K,A*21

$GPGGA,023913.00,3730.37184,N,12702.42459,E,1,04,2.85,100.8,M,18.6,M,,*5D

$GPGSA,A,3,10,23,25,15,,,,,,,,,5.68,2.85,4.92*0A

$GPGSV,2,1,06,10,60,303,31,12,,,22,15,19,101,27,21,03,324,*46

$GPGSV,2,2,06,23,68,181,26,25,35,165,32*7E

$GPGLL,3730.37184,N,12702.42459,E,023913.00,A,A*65

$GPRMC,023914.00,A,3730.37190,N,12702.42456,E,0.117,,111124,,,A*70

$GPVTG,,T,,M,0.117,N,0.217,K,A*20

$GPGGA,023914.00,3730.37190,N,12702.42456,E,1,04,2.85,100.5,M,18.6,M,,*5D

$GPGSA,A,3,10,23,25,15,,,,,,,,,5.69,2.85,4.92*0B

$GPGSV,2,1,06,10,60,303,32,12,,,22,15,19,101,27,21,03,324,*45

$GPGSV,2,2,06,23,68,181,26,25,35,165,32*7E

$GPGLL,3730.37190,N,12702.42456,E,023914.00,A,A*68

$GPRMC,023915.00,A,3730.37195,N,12702.42453,E,0.073,,111124,,,A*72

$GPVTG,,T,,M,0.073,N,0.135,K,A*20

$GPGGA,023915.00,3730.37195,N,12702.42453,E,1,04,2.85,100.3,M,18.6,M,,*5A

$GPGSA,A,3,10,23,25,15,,,,,,,,,5.69,2.85,4.92*0B

$GPGSV,2,1,07,10,60,303,32,12,,,21,15,19,101,28,21,03,324,*48

$GPGSV,2,2,07,23,68,181,27,24,44,049,,25,35,165,31*46

$GPGLL,3730.37195,N,12702.42453,E,023915.00,A,A*69

$GPRMC,023916.00,A,3730.37199,N,12702.42454,E,0.076,,111124,,,A*7F

$GPVTG,,T,,M,0.076,N,0.140,K,A*27

$GPGGA,023916.00,3730.37199,N,12702.42454,E,1,04,2.86,100.2,M,18.6,M,,*50

$GPGSA,A,3,10,23,25,15,,,,,,,,,5.69,2.86,4.92*08

$GPGSV,2,1,07,10,60,303,32,12,,,21,15,19,101,28,21,03,324,*48

$GPGSV,2,2,07,23,68,181,27,24,44,049,27,25,35,165,31*43

$GPGLL,3730.37199,N,12702.42454,E,023916.00,A,A*61

$GPRMC,023917.00,A,3730.37203,N,12702.42443,E,0.162,,111124,,,A*7C

$GPVTG,,T,,M,0.162,N,0.301,K,A*24

$GPGGA,023917.00,3730.37203,N,12702.42443,E,1,04,2.86,99.7,M,18.6,M,,*63

$GPGSA,A,3,10,23,25,15,,,,,,,,,5.70,2.86,4.93*01

$GPGSV,2,1,07,10,60,303,32,12,,,21,15,19,101,28,21,03,324,*48

$GPGSV,2,2,07,23,68,181,27,24,44,049,26,25,35,165,32*41

$GPGLL,3730.37203,N,12702.42443,E,023917.00,A,A*66

$GPRMC,023918.00,A,3730.37207,N,12702.42443,E,0.086,,111124,,,A*7C

$GPVTG,,T,,M,0.086,N,0.160,K,A*2A

$GPGGA,023918.00,3730.37207,N,12702.42443,E,1,04,2.86,99.6,M,18.6,M,,*69

$GPGSA,A,3,10,23,25,15,,,,,,,,,5.70,2.86,4.93*01

$GPGSV,2,1,07,10,60,303,33,12,,,20,15,19,101,29,21,03,324,*49

$GPGSV,2,2,07,23,68,181,26,24,44,049,25,25,35,165,31*40

$GPGLL,3730.37207,N,12702.42443,E,023918.00,A,A*6D

$GPRMC,023919.00,A,3730.37205,N,12702.42436,E,0.200,,111124,,,A*71

$GPVTG,,T,,M,0.200,N,0.370,K,A*25

$GPGGA,023919.00,3730.37205,N,12702.42436,E,1,04,2.86,99.6,M,18.6,M,,*68

$GPGSA,A,3,10,23,25,15,,,,,,,,,5.70,2.86,4.93*01

$GPGSV,2,1,07,10,60,303,33,12,,,20,15,19,101,30,21,03,324,*41

$GPGSV,2,2,07,23,68,181,27,24,44,049,25,25,35,165,32*42

$GPGLL,3730.37205,N,12702.42436,E,023919.00,A,A*6C

$GPRMC,023920.00,A,3730.37203,N,12702.42423,E,0.115,,111124,,,A*7E

$GPVTG,,T,,M,0.115,N,0.212,K,A*27

$GPGGA,023920.00,3730.37203,N,12702.42423,E,1,04,2.86,99.4,M,18.6,M,,*62

$GPGSA,A,3,10,23,25,15,,,,,,,,,5.71,2.86,4.94*07

$GPGSV,2,1,07,10,60,303,33,12,,,20,15,19,101,31,21,03,324,*40

$GPGSV,2,2,07,23,68,181,27,24,44,049,24,25,35,165,32*43

$GPGLL,3730.37203,N,12702.42423,E,023920.00,A,A*64

$GPRMC,023921.00,A,3730.37201,N,12702.42420,E,0.107,,111124,,,A*7D

$GPVTG,,T,,M,0.107,N,0.199,K,A*24

$GPGGA,023921.00,3730.37201,N,12702.42420,E,1,04,2.86,99.5,M,18.6,M,,*63

$GPGSA,A,3,10,23,25,15,,,,,,,,,5.71,2.86,4.94*07

$GPGSV,2,1,07,10,60,303,33,12,,,20,15,19,101,32,21,03,324,*43

$GPGSV,2,2,07,23,68,181,27,24,44,049,24,25,35,165,31*40

$GPGLL,3730.37201,N,12702.42420,E,023921.00,A,A*64

$GPRMC,023922.00,A,3730.37191,N,12702.42405,E,0.112,,111124,,,A*77

$GPVTG,,T,,M,0.112,N,0.207,K,A*24

$GPGGA,023922.00,3730.37191,N,12702.42405,E,1,04,2.87,99.6,M,18.6,M,,*6F

$GPGSA,A,3,10,23,25,15,,,,,,,,,5.71,2.87,4.94*06

$GPGSV,2,1,07,10,60,303,33,12,,,20,15,19,101,32,21,03,324,*43

$GPGSV,2,2,07,23,68,181,26,24,44,049,23,25,35,165,31*46

$GPGLL,3730.37191,N,12702.42405,E,023922.00,A,A*6A

$GPRMC,023923.00,A,3730.37182,N,12702.42389,E,0.019,,111124,,,A*7D

$GPVTG,,T,,M,0.019,N,0.036,K,A*2E

$GPGGA,023923.00,3730.37182,N,12702.42389,E,1,04,2.87,99.6,M,18.6,M,,*6F

$GPGSA,A,3,10,23,25,15,,,,,,,,,5.72,2.87,4.95*04

$GPGSV,2,1,07,10,60,303,33,12,,,19,15,19,101,32,21,03,324,*49

$GPGSV,2,2,07,23,68,181,27,24,44,049,22,25,35,165,31*46

$GPGLL,3730.37182,N,12702.42389,E,023923.00,A,A*6A

$GPRMC,023924.00,A,3730.37173,N,12702.42377,E,0.145,,111124,,,A*7D

$GPVTG,,T,,M,0.145,N,0.269,K,A*2E

$GPGGA,023924.00,3730.37173,N,12702.42377,E,1,04,2.87,99.8,M,18.6,M,,*69

$GPGSA,A,3,10,23,25,15,,,,,,,,,5.72,2.87,4.95*04

$GPGSV,2,1,07,10,60,303,33,12,,,18,15,19,101,32,21,03,324,*48

$GPGSV,2,2,07,23,68,181,27,24,44,049,22,25,35,165,31*46

$GPGLL,3730.37173,N,12702.42377,E,023924.00,A,A*62

$GPRMC,023925.00,A,3730.37163,N,12702.42373,E,0.063,,111124,,,A*7C

$GPVTG,,T,,M,0.063,N,0.117,K,A*21

$GPGGA,023925.00,3730.37163,N,12702.42373,E,1,04,2.87,100.0,M,18.6,M,,*54

$GPGSA,A,3,10,23,25,15,,,,,,,,,5.72,2.87,4.95*04

$GPGSV,2,1,07,10,60,303,34,12,,,16,15,19,101,32,21,03,324,*41

$GPGSV,2,2,07,23,68,181,27,24,44,049,21,25,35,165,31*45

$GPGLL,3730.37163,N,12702.42373,E,023925.00,A,A*66

$GPRMC,023926.00,A,3730.37154,N,12702.42354,E,0.098,,111124,,,A*7A

$GPVTG,,T,,M,0.098,N,0.182,K,A*29

$GPGGA,023926.00,3730.37154,N,12702.42354,E,1,04,2.87,99.9,M,18.6,M,,*6E

$GPGSA,A,3,10,23,25,15,,,,,,,,,5.73,2.87,4.95*05

$GPGSV,2,1,07,10,60,303,34,12,,,15,15,19,101,31,21,03,324,*41

$GPGSV,2,2,07,23,67,180,28,24,44,049,21,25,35,165,31*44

$GPGLL,3730.37154,N,12702.42354,E,023926.00,A,A*64

$GPRMC,023927.00,A,3730.37151,N,12702.42339,E,0.082,,111124,,,A*7E

$GPVTG,,T,,M,0.082,N,0.153,K,A*2E

$GPGGA,023927.00,3730.37151,N,12702.42339,E,1,04,2.87,99.6,M,18.6,M,,*6E

$GPGSA,A,3,10,23,25,15,,,,,,,,,5.73,2.87,4.96*06

$GPGSV,2,1,07,10,60,303,33,12,,,16,15,19,101,31,21,03,324,*45

$GPGSV,2,2,07,23,67,180,28,24,44,049,19,25,35,165,31*4F

$GPGLL,3730.37151,N,12702.42339,E,023927.00,A,A*6B

$GPRMC,023928.00,A,3730.37147,N,12702.42325,E,0.092,,111124,,,A*7A

$GPVTG,,T,,M,0.092,N,0.171,K,A*2F

$GPGGA,023928.00,3730.37147,N,12702.42325,E,1,04,2.88,99.4,M,18.6,M,,*66

$GPGSA,A,3,10,23,25,15,,,,,,,,,5.73,2.88,4.96*09

$GPGSV,2,1,07,10,60,303,33,12,,,16,15,19,101,31,21,03,324,*45

$GPGSV,2,2,07,23,67,180,27,24,44,049,18,25,35,164,31*40

$GPGLL,3730.37147,N,12702.42325,E,023928.00,A,A*6E

$GPRMC,023929.00,A,3730.37135,N,12702.42289,E,0.100,,111124,,,A*73

$GPVTG,,T,,M,0.100,N,0.185,K,A*2E

$GPGGA,023929.00,3730.37135,N,12702.42289,E,1,04,2.88,99.2,M,18.6,M,,*63

$GPGSA,A,3,10,23,25,15,,,,,,,,,5.74,2.88,4.96*0E

$GPGSV,2,1,07,10,60,303,33,12,,,19,15,19,101,32,21,03,324,*49

$GPGSV,2,2,07,23,67,180,28,24,44,049,16,25,35,164,31*41

$GPGLL,3730.37135,N,12702.42289,E,023929.00,A,A*6D

$GPRMC,023930.00,A,3730.37124,N,12702.42260,E,0.035,,111124,,,A*7B

$GPVTG,,T,,M,0.035,N,0.064,K,A*27

$GPGGA,023930.00,3730.37124,N,12702.42260,E,1,04,2.88,98.7,M,18.6,M,,*68

$GPGSA,A,3,10,23,25,15,,,,,,,,,5.74,2.88,4.97*0F

$GPGSV,2,1,07,10,60,303,32,12,,,20,15,19,101,32,21,03,324,*42

$GPGSV,2,2,07,23,67,180,28,24,44,049,14,25,35,164,30*42

$GPGLL,3730.37124,N,12702.42260,E,023930.00,A,A*62

$GPRMC,023931.00,A,3730.37125,N,12702.42245,E,0.099,,111124,,,A*7A

$GPVTG,,T,,M,0.099,N,0.183,K,A*29

$GPGGA,023931.00,3730.37125,N,12702.42245,E,1,04,2.88,98.4,M,18.6,M,,*6C

$GPGSA,A,3,10,23,25,15,,,,,,,,,5.74,2.88,4.97*0F

$GPGSV,2,1,07,10,60,303,33,12,,,21,15,19,101,32,21,03,324,*42

$GPGSV,2,2,07,23,67,180,28,24,44,049,14,25,35,164,31*43

$GPGLL,3730.37125,N,12702.42245,E,023931.00,A,A*65

$GPRMC,023932.00,A,3730.37117,N,12702.42220,E,0.065,,111124,,,A*78

$GPVTG,,T,,M,0.065,N,0.121,K,A*22

$GPGGA,023932.00,3730.37117,N,12702.42220,E,1,04,2.88,98.1,M,18.6,M,,*68

$GPGSA,A,3,10,23,25,15,,,,,,,,,5.75,2.88,4.97*0E

$GPGSV,2,1,07,10,60,303,32,12,,,22,15,19,101,32,21,03,324,*40

$GPGSV,2,2,07,23,67,180,28,24,44,049,14,25,35,164,30*42

$GPGLL,3730.37117,N,12702.42220,E,023932.00,A,A*64

$GPRMC,023933.00,A,3730.37108,N,12702.42201,E,0.132,,111124,,,A*77

$GPVTG,,T,,M,0.132,N,0.244,K,A*21

$GPGGA,023933.00,3730.37108,N,12702.42201,E,1,04,2.89,98.0,M,18.6,M,,*64

$GPGSA,A,3,10,23,25,15,,,,,,,,,5.75,2.89,4.97*0F

$GPGSV,2,1,07,10,60,303,32,12,,,22,15,19,101,32,21,03,324,*40

$GPGSV,2,2,07,23,67,180,28,24,44,049,14,25,35,164,31*43

$GPGLL,3730.37108,N,12702.42201,E,023933.00,A,A*68

$GPRMC,023934.00,A,3730.37098,N,12702.42185,E,0.152,,111124,,,A*71

$GPVTG,,T,,M,0.152,N,0.281,K,A*2E

$GPGGA,023934.00,3730.37098,N,12702.42185,E,1,04,2.89,97.9,M,18.6,M,,*62

$GPGSA,A,3,10,23,25,15,,,,,,,,,5.75,2.89,4.98*00

$GPGSV,2,1,07,10,60,303,33,12,,,23,15,19,101,31,21,03,324,*43

$GPGSV,2,2,07,23,67,180,28,24,44,049,15,25,35,164,30*43

$GPGLL,3730.37098,N,12702.42185,E,023934.00,A,A*68

$GPRMC,023935.00,A,3730.37087,N,12702.42165,E,0.184,,111124,,,A*7B

$GPVTG,,T,,M,0.184,N,0.341,K,A*28

$GPGGA,023935.00,3730.37087,N,12702.42165,E,1,04,2.89,97.7,M,18.6,M,,*6D

$GPGSA,A,3,10,23,25,15,,,,,,,,,5.76,2.89,4.98*03

$GPGSV,2,1,07,10,60,303,32,12,,,24,15,19,101,31,21,03,324,*45

$GPGSV,2,2,07,23,67,180,28,24,44,049,15,25,35,164,31*42

$GPGLL,3730.37087,N,12702.42165,E,023935.00,A,A*69

$GPRMC,023936.00,A,3730.37083,N,12702.42150,E,0.132,,111124,,,A*77

$GPVTG,,T,,M,0.132,N,0.245,K,A*20

$GPGGA,023936.00,3730.37083,N,12702.42150,E,1,04,2.89,97.4,M,18.6,M,,*6F

$GPGSA,A,3,10,23,25,15,,,,,,,,,5.76,2.89,4.98*03

$GPGSV,2,1,07,10,60,303,32,12,,,24,15,19,101,30,21,03,324,*44

$GPGSV,2,2,07,23,67,180,28,24,44,049,14,25,35,164,30*42

$GPGLL,3730.37083,N,12702.42150,E,023936.00,A,A*68

$GPRMC,023937.00,A,3730.37086,N,12702.42123,E,0.148,,111124,,,A*7A

$GPVTG,,T,,M,0.148,N,0.274,K,A*2F

$GPGGA,023937.00,3730.37086,N,12702.42123,E,1,04,2.89,96.9,M,18.6,M,,*63

$GPGSA,A,3,10,23,25,15,,,,,,,,,5.76,2.89,4.99*02

$GPGSV,2,1,07,10,60,303,33,12,,,24,15,19,101,30,21,03,324,*45

$GPGSV,2,2,07,23,67,180,28,24,44,049,11,25,35,164,30*47

$GPGLL,3730.37086,N,12702.42123,E,023937.00,A,A*68

$GPRMC,023938.00,A,3730.37080,N,12702.42096,E,0.091,,111124,,,A*79

$GPVTG,,T,,M,0.091,N,0.168,K,A*24

$GPGGA,023938.00,3730.37080,N,12702.42096,E,1,04,2.89,96.2,M,18.6,M,,*6E

$GPGSA,A,3,10,23,25,15,,,,,,,,,5.77,2.89,4.99*03

$GPGSV,2,1,07,10,60,303,32,12,,,22,15,19,101,29,21,03,324,*4A

$GPGSV,2,2,07,23,67,180,28,24,44,049,12,25,35,164,31*45

$GPGLL,3730.37080,N,12702.42096,E,023938.00,A,A*6E

$GPRMC,023939.00,A,3730.37081,N,12702.42095,E,0.078,,111124,,,A*7D

$GPVTG,,T,,M,0.078,N,0.145,K,A*2C

$GPGGA,023939.00,3730.37081,N,12702.42095,E,1,04,2.90,96.3,M,18.6,M,,*64

$GPGSA,A,3,10,23,25,15,,,,,,,,,5.77,2.90,4.99*0B

$GPGSV,2,1,07,10,60,303,33,12,,,22,15,19,101,28,21,03,324,*4A

$GPGSV,2,2,07,23,67,180,29,24,44,049,14,25,35,164,31*42

$GPGLL,3730.37081,N,12702.42095,E,023939.00,A,A*6D

$GPRMC,023940.00,A,3730.37080,N,12702.42110,E,0.078,,111124,,,A*7E

$GPVTG,,T,,M,0.078,N,0.144,K,A*2D

$GPGGA,023940.00,3730.37080,N,12702.42110,E,1,04,2.90,96.8,M,18.6,M,,*6C

$GPGSA,A,3,10,23,25,15,,,,,,,,,5.78,2.90,5.00*05

$GPGSV,2,1,07,10,60,303,32,12,,,21,15,19,101,28,21,03,324,*48

$GPGSV,2,2,07,23,67,180,29,24,44,049,11,25,35,164,31*47

$GPGLL,3730.37080,N,12702.42110,E,023940.00,A,A*6E

$GPRMC,023941.00,A,3730.37077,N,12702.42099,E,0.068,,111124,,,A*76

$GPVTG,,T,,M,0.068,N,0.126,K,A*28

$GPGGA,023941.00,3730.37077,N,12702.42099,E,1,04,2.90,96.4,M,18.6,M,,*69

$GPGSA,A,3,10,23,25,15,,,,,,,,,5.78,2.90,5.00*05

$GPGSV,2,1,07,10,60,303,33,12,,,21,15,19,101,27,21,03,324,*46

$GPGSV,2,2,07,23,67,180,29,24,44,049,09,25,35,164,31*4E

$GPGLL,3730.37077,N,12702.42099,E,023941.00,A,A*67

$GPRMC,023942.00,A,3730.37074,N,12702.42088,E,0.159,,111124,,,A*75

$GPVTG,,T,,M,0.159,N,0.295,K,A*20

$GPGGA,023942.00,3730.37074,N,12702.42088,E,1,04,2.90,95.8,M,18.6,M,,*66

$GPGSA,A,3,10,23,25,15,,,,,,,,,5.78,2.90,5.00*05

$GPGSV,2,1,07,10,60,303,33,12,,,20,15,19,101,27,21,03,324,*47

$GPGSV,2,2,07,23,67,180,29,24,44,049,08,25,35,164,32*4C

$GPGLL,3730.37074,N,12702.42088,E,023942.00,A,A*67

$GPRMC,023943.00,A,3730.37067,N,12702.42107,E,0.009,,111124,,,A*74

$GPVTG,,T,,M,0.009,N,0.016,K,A*2D

$GPGGA,023943.00,3730.37067,N,12702.42107,E,1,04,2.90,96.3,M,18.6,M,,*6B

$GPGSA,A,3,10,23,25,15,,,,,,,,,5.79,2.90,5.01*05

$GPGSV,2,1,07,10,60,303,33,12,,,19,15,19,101,27,21,03,324,*4D

$GPGSV,2,2,07,23,67,180,29,24,44,049,07,25,35,164,32*43

$GPGLL,3730.37067,N,12702.42107,E,023943.00,A,A*62

$GPRMC,023944.00,A,3730.37069,N,12702.42076,E,0.133,,111124,,,A*72

$GPVTG,,T,,M,0.133,N,0.247,K,A*23

$GPGGA,023944.00,3730.37069,N,12702.42076,E,1,04,2.90,95.1,M,18.6,M,,*64

$GPGSA,A,3,10,23,25,15,,,,,,,,,5.79,2.90,5.01*05

$GPGSV,2,1,07,10,60,303,33,12,,,17,15,19,101,27,21,03,324,*43

$GPGSV,2,2,07,23,67,180,29,24,44,049,07,25,35,164,32*43

$GPGLL,3730.37069,N,12702.42076,E,023944.00,A,A*6C

$GPRMC,023945.00,A,3730.37072,N,12702.42051,E,0.105,,111124,,,A*79

$GPVTG,,T,,M,0.105,N,0.194,K,A*2B

$GPGGA,023945.00,3730.37072,N,12702.42051,E,1,04,2.91,94.0,M,18.6,M,,*6B

$GPGSA,A,3,10,23,25,15,,,,,,,,,5.79,2.91,5.01*04

$GPGSV,2,1,07,10,60,303,33,12,,,17,15,19,101,27,21,03,324,*43

$GPGSV,2,2,07,23,67,180,29,24,44,049,,25,35,164,32*44

$GPGLL,3730.37072,N,12702.42051,E,023945.00,A,A*62

$GPRMC,023946.00,A,3730.37076,N,12702.42033,E,0.114,,111124,,,A*7A

$GPVTG,,T,,M,0.114,N,0.211,K,A*25

$GPGGA,023946.00,3730.37076,N,12702.42033,E,1,04,2.91,93.1,M,18.6,M,,*6E

$GPGSA,A,3,10,23,25,15,,,,,,,,,5.80,2.91,5.01*02

$GPGSV,2,1,07,10,60,303,33,12,,,15,15,19,101,27,21,03,324,*41

$GPGSV,2,2,07,23,67,180,29,24,44,049,,25,35,164,32*44

$GPGLL,3730.37076,N,12702.42033,E,023946.00,A,A*61

$GPRMC,023947.00,A,3730.37080,N,12702.42035,E,0.081,,111124,,,A*79

$GPVTG,,T,,M,0.081,N,0.150,K,A*2E

$GPGGA,023947.00,3730.3702702.42035,E,1,04,2.91,92.7,M,18.6,M,,*67

$GPGSA,A,3,10,23,25,15,,,,,,,,,5.80,2.91,5.02*01

$GPGSV,2,1,07,10,60,303,33,12,,,15,15,19,101,28,21,03,324,*4E

$GPGSV,2,2,07,23,67,180,30,24,44,049,,25,35,164,33*4D

$GPGLL,3730.37080,N,12702.42035,E,023947.00,A,A*6F

$GPRMC,023948.00,A,3730.37085,N,12702.42026,E,0.085,,111124,,,A*75

$GPVTG,,T,,M,0.085,N,0.158,K,A*22

$GPGGA,023948.00,3730.37085,N,12702.42026,E,1,04,2.91,92.0,M,18.6,M,,*68

$GPGSA,A,3,10,23,25,15,,,,,,,,,5.80,2.91,5.02*01

$GPGSV,2,1,06,10,60,303,34,15,19,101,28,21,03,324,,23,67,180,30*75

$GPGSV,2,2,06,24,44,049,20,25,35,164,33*74

$GPGLL,3730.37085,N,12702.42026,E,023948.00,A,A*67

$GPRMC,023949.00,A,3730.37088,N,12702.42047,E,0.008,,111124,,,A*7B

$GPVTG,,T,,M,0.008,N,0.014,K,A*2E

$GPGGA,023949.00,3730.37088,N,12702.42047,E,1,04,2.91,92.4,M,18.6,M,,*67

$GPGSA,A,3,10,23,25,15,,,,,,,,,5.81,2.91,5.02*00

$GPGSV,2,1,06,10,60,303,34,15,19,101,28,21,03,324,,23,67,180,29*7D

$GPGSV,2,2,06,24,44,049,21,25,35,164,33*75

$GPGLL,3730.37088,N,12702.42047,E,023949.00,A,A*6C

$GPRMC,023950.00,A,3730.37094,N,12702.42048,E,0.051,,111124,,,A*7D

$GPVTG,,T,,M,0.051,N,0.095,K,A*2B

$GPGGA,023950.00,3730.37094,N,12702.42048,E,1,04,2.92,92.0,M,18.6,M,,*6A

$GPGSA,A,3,10,23,25,15,,,,,,,,,5.81,2.92,5.03*02

$GPGSV,2,1,06,10,60,303,33,15,19,101,29,21,03,324,,23,67,180,29*7B

$GPGSV,2,2,06,24,44,049,21,25,35,164,33*75

$GPGLL,3730.37094,N,12702.42048,E,023950.00,A,A*66

$GPRMC,023951.00,A,3730.37101,N,12702.42049,E,0.018,,111124,,,A*7D

$GPVTG,,T,,M,0.018,N,0.034,K,A*2D

$GPGGA,023951.00,3730.37101,N,12702.42049,E,1,04,2.92,91.8,M,18.6,M,,*6C

$GPGSA,A,3,10,23,25,15,,,,,,,,,5.81,2.92,5.03*02

$GPGSV,2,1,06,10,60,303,33,15,19,101,29,21,03,324,,23,67,180,29*7B

$GPGSV,2,2,06,24,44,049,22,25,35,164,33*76

$GPGLL,3730.37101,N,12702.42049,E,023951.00,A,A*6B

$GPRMC,023952.00,A,3730.37102,N,12702.42045,E,0.014,,111124,,,A*7D

$GPVTG,,T,,M,0.014,N,0.027,K,A*23

$GPGGA,023952.00,3730.37102,N,12702.42045,E,1,04,2.92,91.6,M,18.6,M,,*6E

$GPGSA,A,3,10,23,25,15,,,,,,,,,5.82,2.92,5.03*01

$GPGSV,2,1,06,10,60,303,33,15,19,101,29,21,03,324,,23,67,180,29*7B

$GPGSV,2,2,06,24,44,049,21,25,35,164,33*75

$GPGLL,3730.37102,N,12702.42045,E,023952.00,A,A*67

$GPRMC,023953.00,A,3730.37108,N,12702.42044,E,0.078,,111124,,,A*7D

$GPVTG,,T,,M,0.078,N,0.145,K,A*2C

$GPGGA,023953.00,3730.37108,N,12702.42044,E,1,04,2.92,91.3,M,18.6,M,,*61

$GPGSA,A,3,10,23,25,15,,,,,,,,,5.82,2.92,5.04*06

$GPGSV,2,1,06,10,60,303,33,15,19,101,29,21,03,324,,23,67,180,29*7B

$GPGSV,2,2,06,24,44,049,21,25,35,164,33*75

$GPGLL,3730.37108,N,12702.42044,E,023953.00,A,A*6D

$GPRMC,023954.00,A,3730.37114,N,12702.42037,E,0.166,,111124,,,A*7D

$GPVTG,,T,,M,0.166,N,0.308,K,A*29

$GPGGA,023954.00,3730.37114,N,12702.42037,E,1,04,2.92,91.0,M,18.6,M,,*6C

$GPGSA,A,3,10,23,25,15,,,,,,,,,5.83,2.92,5.04*07

$GPGSV,2,1,06,10,60,303,33,15,19,101,29,21,03,324,,23,67,180,29*7B

$GPGSV,2,2,06,24,44,049,21,25,35,164,33*75

$GPGLL,3730.37114,N,12702.42037,E,023954.00,A,A*63

$GPRMC,023955.00,A,3730.37120,N,12702.42041,E,0.017,,111124,,,A*7D

$GPVTG,,T,,M,0.017,N,0.032,K,A*24

$GPGGA,023955.00,3730.37120,N,12702.42041,E,1,04,2.93,91.2,M,18.6,M,,*68

$GPGSA,A,3,10,23,25,15,,,,,,,,,5.83,2.93,5.04*06

$GPGSV,2,1,06,10,60,303,33,15,19,101,29,21,03,324,,23,67,180,29*7B

$GPGSV,2,2,06,24,44,049,21,25,35,164,34*72

$GPGLL,3730.37120,N,12702.42041,E,023955.00,A,A*64

$GPRMC,023956.00,A,3730.37124,N,12702.42034,E,0.087,,111124,,,A*71

$GPVTG,,T,,M,0.087,N,0.161,K,A*2A

$GPGGA,023956.00,3730.37124,N,12702.42034,E,1,04,2.93,91.0,M,18.6,M,,*6F

$GPGSA,A,3,10,23,25,15,,,,,,,,,5.83,2.93,5.05*07

$GPGSV,2,1,06,10,60,303,33,15,19,101,29,21,03,324,,23,67,180,30*73

$GPGSV,2,2,06,24,44,049,21,25,35,164,34*72

$GPGLL,3730.37124,N,12702.42034,E,023956.00,A,A*61

$GPRMC,023957.00,A,3730.37132,N,12702.42030,E,0.120,,111124,,,A*7F

$GPVTG,,T,,M,0.120,N,0.223,K,A*23

$GPGGA,023957.00,3730.37132,N,12702.42030,E,1,04,2.93,90.7,M,18.6,M,,*6B

$GPGSA,A,3,10,23,25,15,,,,,,,,,5.84,2.93,5.05*00

$GPGSV,2,1,06,10,60,303,33,15,19,101,29,21,03,324,,23,67,180,30*73

$GPGSV,2,2,06,24,44,049,21,25,35,164,35*73

$GPGLL,3730.37132,N,12702.42030,E,023957.00,A,A*63

$GPRMC,023958.00,A,3730.37137,N,12702.42028,E,0.099,,111124,,,A*7F

$GPVTG,,T,,M,0.099,N,0.183,K,A*29

$GPGGA,023958.00,3730.37137,N,12702.42028,E,1,04,2.93,90.8,M,18.6,M,,*67

$GPGSA,A,3,10,23,25,15,,,,,,,,,5.84,2.93,5.05*00

$GPGSV,2,1,06,10,60,303,32,15,19,101,28,21,03,324,,23,67,180,30*73

$GPGSV,2,2,06,24,44,049,21,25,35,164,35*73

$GPGLL,3730.37137,N,12702.42028,E,023958.00,A,A*60

$GPRMC,023959.00,A,3730.37138,N,12702.42038,E,0.063,,111124,,,A*75

$GPVTG,,T,,M,0.063,N,0.117,K,A*21

$GPGGA,023959.00,3730.37138,N,12702.42038,E,1,04,2.93,91.4,M,18.6,M,,*65

$GPGSA,A,3,10,23,25,15,,,,,,,,,5.84,2.93,5.05*00

$GPGSV,2,1,06,10,60,303,32,15,19,101,28,21,03,324,,23,67,180,30*73

$GPGSV,2,2,06,24,44,049,21,25,35,164,34*72

$GPGLL,3730.37138,N,12702.42038,E,023959.00,A,A*6F

$GPRMC,024000.00,A,3730.37142,N,12702.42009,E,0.095,,111124,,,A*71

$GPVTG,,T,,M,0.095,N,0.176,K,A*2F

$GPGGA,024000.00,3730.37142,N,12702.42009,E,1,04,2.93,90.6,M,18.6,M,,*6B

$GPGSA,A,3,10,23,25,15,,,,,,,,,5.85,2.93,5.06*02

$GPGSV,2,1,06,10,60,303,32,15,19,101,28,21,03,324,,23,67,180,30*73

$GPGSV,2,2,06,24,44,049,22,25,35,164,34*71

$GPGLL,3730.37142,N,12702.42009,E,024000.00,A,A*62

$GPRMC,024001.00,A,3730.37147,N,12702.42014,E,0.009,,111124,,,A*7C

$GPVTG,,T,,M,0.009,N,0.017,K,A*2C

$GPGGA,024001.00,3730.37147,N,12702.42014,E,1,04,2.94,90.9,M,18.6,M,,*6B

$GPGSA,A,3,10,23,25,15,,,,,,,,,5.85,2.94,5.06*05

$GPGSV,2,1,06,10,60,303,32,15,19,101,27,21,03,324,,23,67,180,30*7C

$GPGSV,2,2,06,24,44,049,21,25,35,164,34*72

$GPGLL,3730.37147,N,12702.42014,E,024001.00,A,A*6A

$GPRMC,024002.00,A,3730.37149,N,12702.42027,E,0.057,,111124,,,A*7A

$GPVTG,,T,,M,0.057,N,0.106,K,A*26

$GPGGA,024002.00,3730.37149,N,12702.42027,E,1,04,2.94,91.4,M,18.6,M,,*6A

$GPGSA,A,3,10,23,25,15,,,,,,,,,5.85,2.94,5.06*05

$GPGSV,2,1,07,10,60,302,31,15,19,101,27,21,03,324,,23,67,180,30*7F

$GPGSV,2,2,07,24,44,049,22,25,35,164,34,32,,,33*71

$GPGLL,3730.37149,N,12702.42027,E,024002.00,A,A*67

$GPRMC,024003.00,A,3730.37154,N,12702.42010,E,0.012,,111124,,,A*72

$GPVTG,,T,,M,0.012,N,0.022,K,A*20

$GPGGA,024003.00,3730.37154,N,12702.42010,E,1,04,2.94,90.8,M,18.6,M,,*6E

$GPGSA,A,3,10,23,25,15,,,,,,,,,5.86,2.94,5.07*07

$GPGSV,2,1,07,10,60,302,31,15,19,101,27,21,03,324,,23,67,180,30*7F

$GPGSV,2,2,07,24,44,049,22,25,35,164,34,32,,,33*71

$GPGLL,3730.37154,N,12702.42010,E,024003.00,A,A*6E

$GPRMC,024004.00,A,3730.37160,N,12702.42011,E,0.037,,111124,,,A*74

$GPVTG,,T,,M,0.037,N,0.068,K,A*29

$GPGGA,024004.00,3730.37160,N,12702.42011,E,1,04,2.94,90.8,M,18.6,M,,*6F

$GPGSA,A,3,10,23,25,15,,,,,,,,,5.86,2.94,5.07*07

$GPGSV,2,1,07,10,60,302,31,15,19,101,27,21,03,323,,23,67,180,30*78

$GPGSV,2,2,07,24,44,049,21,25,35,164,34,32,,,33*72

$GPGLL,3730.37160,N,12702.42011,E,024004.00,A,A*6F

$GPRMC,024005.00,A,3730.37165,N,12702.42023,E,0.072,,111124,,,A*70

$GPVTG,,T,,M,0.072,N,0.132,K,A*26

$GPGGA,024005.00,3730.37165,N,12702.42023,E,1,04,2.94,91.2,M,18.6,M,,*61

$GPGSA,A,3,10,23,25,15,,,,,,,,,5.87,2.94,5.07*06

$GPGSV,2,1,07,10,60,302,31,15,19,101,27,21,03,323,,23,67,180,30*78

$GPGSV,2,2,07,24,44,049,21,25,35,164,34,32,,,33*72

$GPGLL,3730.37165,N,12702.42023,E,024005.00,A,A*6A

$GPRMC,024006.00,A,3730.37174,N,12702.42025,E,0.121,,111124,,,A*72

$GPVTG,,T,,M,0.121,N,0.224,K,A*25

$GPGGA,024006.00,3730.37174,N,12702.42025,E,1,04,2.95,91.4,M,18.6,M,,*63

$GPGSA,A,3,10,23,25,15,,,,,,,,,5.87,2.95,5.08*08

$GPGSV,2,1,07,10,60,302,31,15,19,101,27,21,03,323,,23,67,180,30*78

$GPGSV,2,2,07,24,44,049,20,25,35,164,34,32,,,32*72

$GPGLL,3730.37174,N,12702.42025,E,024006.00,A,A*6F

$GPRMC,024007.00,A,3730.37180,N,12702.42016,E,0.139,,111124,,,A*71

$GPVTG,,T,,M,0.139,N,0.258,K,A*27

$GPGGA,024007.00,3730.37180,N,12702.42016,E,1,04,2.95,91.2,M,18.6,M,,*6F

$GPGSA,A,3,10,23,25,15,,,,,,,,,5.87,2.95,5.08*08

$GPGSV,2,1,07,10,60,302,31,15,19,101,27,21,03,323,,23,67,180,30*78

$GPGSV,2,2,07,24,43,049,19,25,35,164,34,32,,,32*7F

$GPGLL,3730.37180,N,12702.42016,E,024007.00,A,A*65

$GPRMC,024008.00,A,3730.37183,N,12702.42009,E,0.118,,111124,,,A*70

$GPVTG,,T,,M,0.118,N,0.219,K,A*21

$GPGGA,024008.00,3730.37183,N,12702.42009,E,1,04,2.95,91.2,M,18.6,M,,*6D

$GPGSA,A,3,10,23,25,15,,,,,,,,,5.88,2.95,5.08*07

$GPGSV,2,1,07,10,60,302,31,15,19,101,27,21,03,323,,23,67,180,30*78

$GPGSV,2,2,07,24,43,049,18,25,35,164,33,32,,,32*79

$GPGLL,3730.37183,N,12702.42009,E,024008.00,A,A*67

$GPRMC,024009.00,A,3730.37190,N,12702.42017,E,0.126,,111124,,,A*71

$GPVTG,,T,,M,0.126,N,0.234,K,A*23

$GPGGA,024009.00,3730.37190,N,12702.42017,E,1,04,2.95,91.7,M,18.6,M,,*64

$GPGSA,A,3,10,23,25,15,,,,,,,,,5.88,2.95,5.09*06

$GPGSV,2,1,07,10,60,302,31,15,19,101,26,21,03,323,,23,67,180,29*71

$GPGSV,2,2,07,24,43,049,17,25,35,164,34,32,,,32*71

$GPGLL,3730.37190,N,12702.42017,E,024009.00,A,A*6B

$GPRMC,024010.00,A,3730.37195,N,12702.42019,E,0.085,,111124,,,A*7A

$GPVTG,,T,,M,0.085,N,0.158,K,A*22

$GPGGA,024010.00,3730.37195,N,12702.42019,E,1,04,2.95,91.9,M,18.6,M,,*69

$GPGSA,A,3,10,23,25,15,,,,,,,,,5.88,2.95,5.09*06

$GPGSV,2,1,07,10,60,302,30,15,19,101,26,21,03,323,,23,67,180,29*70

$GPGSV,2,2,07,24,43,049,16,25,35,164,34,32,,,32*70

$GPGLL,3730.37195,N,12702.42019,E,024010.00,A,A*68

$GPRMC,024011.00,A,3730.37203,N,12702.41996,E,0.157,,111124,,,A*74

$GPVTG,,T,,M,0.157,N,0.292,K,A*29

$GPGGA,024011.00,3730.37203,N,12702.41996,E,1,04,2.96,91.3,M,18.6,M,,*60

$GPGSA,A,3,10,23,25,15,,,,,,,,,5.89,2.96,5.09*04

$GPGSV,2,1,07,10,60,302,31,15,19,101,26,21,03,323,,23,67,180,29*71

$GPGSV,2,2,07,24,43,049,15,25,35,164,34,32,,,32*73

$GPGLL,3730.37203,N,12702.41996,E,024011.00,A,A*68

$GPRMC,024012.00,A,3730.37205,N,12702.41978,E,0.300,,111124,,,A*71

$GPVTG,,T,,M,0.300,N,0.555,K,A*25

$GPGGA,024012.00,3730.37205,N,12702.41978,E,1,04,2.96,91.2,M,18.6,M,,*64

$GPGSA,A,3,10,23,25,15,,,,,,,,,5.89,2.96,5.10*0C

$GPGSV,2,1,07,10,60,302,30,15,19,101,25,21,03,323,,23,67,180,29*73

$GPGSV,2,2,07,24,43,049,14,25,35,164,33,32,,,32*75

$GPGLL,3730.37205,N,12702.41978,E,024012.00,A,A*6D

$GPRMC,024013.00,A,3730.37205,N,12702.41976,E,0.216,,111124,,,A*78

$GPVTG,,T,,M,0.216,N,0.400,K,A*22

$GPGGA,024013.00,3730.37205,N,12702.41976,E,1,04,2.96,91.5,M,18.6,M,,*6C

$GPGSA,A,3,10,23,25,15,,,,,,,,,5.90,2.96,5.10*04

$GPGSV,2,1,07,10,60,302,31,15,19,101,24,21,03,323,,23,67,180,29*73

$GPGSV,2,2,07,24,43,049,12,25,35,164,33,32,,,32*73

$GPGLL,3730.37205,N,12702.41976,E,024013.00,A,A*62

$GPRMC,024014.00,A,3730.37210,N,12702.41950,E,0.019,,111124,,,A*72

$GPVTG,,T,,M,0.019,N,0.034,K,A*2C

$GPGGA,024014.00,3730.37210,N,12702.41950,E,1,04,2.96,91.0,M,18.6,M,,*6E

$GPGSA,A,3,10,23,25,15,,,,,,,,,5.90,2.96,5.10*04

$GPGSV,2,1,07,10,60,302,30,15,19,101,22,21,03,323,,23,67,180,29*74

$GPGSV,2,2,07,24,43,049,09,25,35,164,33,32,,,32*79

$GPGLL,3730.37210,N,12702.41950,E,024014.00,A,A*65

$GPRMC,024015.00,A,3730.37206,N,12702.41907,E,0.326,,111124,,,A*79

$GPVTG,,T,,M,0.326,N,0.604,K,A*26

$GPGGA,024015.00,3730.37206,N,12702.41907,E,1,04,2.96,90.5,M,18.6,M,,*6E

$GPGSA,A,3,10,23,25,15,,,,,,,,,5.90,2.96,5.11*05

$GPGSV,2,1,07,10,60,302,29,15,19,101,22,21,03,323,,23,67,180,29*7C

$GPGSV,2,2,07,24,43,049,08,25,35,164,33,32,,,32*78

$GPGLL,3730.37206,N,12702.41907,E,024015.00,A,A*61

$GPRMC,024016.00,A,3730.37221,N,12702.41917,E,0.341,,111124,,,A*7F

$GPVTG,,T,,M,0.341,N,0.631,K,A*21

$GPGGA,024016.00,3730.37221,N,12702.41917,E,1,04,2.96,90.3,M,18.6,M,,*6F

$GPGSA,A,3,10,23,25,15,,,,,,,,,5.91,2.96,5.11*04

$GPGSV,2,1,07,10,60,302,29,15,19,101,21,21,03,323,,23,67,180,30*77

$GPGSV,2,2,07,24,43,049,09,25,35,164,33,32,,,32*79

$GPGLL,3730.37221,N,12702.41917,E,024016.00,A,A*66

$GPRMC,024017.00,A,3730.37230,N,12702.41903,E,0.218,,111124,,,A*76

$GPVTG,,T,,M,0.218,N,0.403,K,A*2F

$GPGGA,024017.00,3730.37230,N,12702.41903,E,1,04,2.97,89.8,M,18.6,M,,*69

$GPGSA,A,3,10,23,25,15,,,,,,,,,5.91,2.97,5.11*05

$GPGSV,2,1,07,10,60,302,29,15,19,101,21,21,03,323,,23,67,180,30*77

$GPGSV,2,2,07,24,43,049,09,25,35,164,33,32,,,32*79

$GPGLL,3730.37230,N,12702.41903,E,024017.00,A,A*62

$GPRMC,024018.00,A,3730.37252,N,12702.41937,E,0.440,,111124,,,A*71

$GPVTG,,T,,M,0.440,N,0.816,K,A*2C

$GPGGA,024018.00,3730.37252,N,12702.41937,E,1,04,2.97,90.0,M,18.6,M,,*65

$GPGSA,A,3,10,23,25,15,,,,,,,,,5.91,2.97,5.11*05

$GPGSV,2,1,07,10,60,302,28,15,19,101,20,21,03,323,,23,67,180,30*77

$GPGSV,2,2,07,24,43,049,09,25,35,164,33,32,,,31*7A

$GPGLL,3730.37252,N,12702.41937,E,024018.00,A,A*6E

$GPRMC,024019.00,A,3730.37264,N,12702.41950,E,0.655,,111124,,,A*72

$GPVTG,,T,,M,0.655,N,1.213,K,A*24

$GPGGA,024019.00,3730.37264,N,12702.41950,E,1,04,2.97,90.1,M,18.6,M,,*61

$GPGSA,A,3,10,23,25,15,,,,,,,,,5.92,2.97,5.12*05

$GPGSV,2,1,07,10,60,302,28,15,19,101,19,21,03,323,,23,67,180,30*7D

$GPGSV,2,2,07,24,43,049,09,25,35,164,33,32,,,31*7A

$GPGLL,3730.37264,N,12702.41950,E,024019.00,A,A*6B

$GPRMC,024020.00,A,3730.37303,N,12702.41997,E,1.771,53.17,111124,,,A*5B

$GPVTG,53.17,T,,M,1.771,N,3.281,K,A*05

$GPGGA,024020.00,3730.37303,N,12702.41997,E,1,04,2.97,89.5,M,18.6,M,,*6C

$GPGSA,A,3,10,23,25,15,,,,,,,,,5.92,2.97,5.12*05

$GPGSV,2,1,07,10,60,302,28,15,19,101,17,21,03,323,,23,67,180,30*73

$GPGSV,2,2,07,24,43,049,09,25,35,164,33,32,,,31*7A

$GPGLL,3730.37303,N,12702.41997,E,024020.00,A,A*6A

$GPRMC,024021.00,A,3730.37302,N,12702.41994,E,0.716,,111124,,,A*76

$GPVTG,,T,,M,0.716,N,1.326,K,A*25

$GPGGA,024021.00,3730.37302,N,12702.41994,E,1,04,2.97,89.9,M,18.6,M,,*63

$GPGSA,A,3,10,23,25,15,,,,,,,,,5.93,2.97,5.12*04

$GPGSV,2,1,07,10,60,302,28,15,19,101,13,21,03,323,,23,67,180,29*7F

$GPGSV,2,2,07,24,43,049,09,25,35,164,33,32,,,31*7A

$GPGLL,3730.37302,N,12702.41994,E,024021.00,A,A*69

$GPRMC,024022.00,A,3730.37290,N,12702.41950,E,0.248,,111124,,,A*79

$GPVTG,,T,,M,0.248,N,0.459,K,A*25

$GPGGA,024022.00,3730.37290,N,12702.41950,E,1,04,2.98,89.7,M,18.6,M,,*63

$GPGSA,A,3,10,23,25,15,,,,,,,,,5.93,2.98,5.13*0A

$GPGSV,2,1,07,10,60,302,29,15,19,101,11,21,03,323,,23,67,180,29*7C

$GPGSV,2,2,07,24,43,049,17,25,35,164,32,32,,,31*74

$GPGLL,3730.37290,N,12702.41950,E,024022.00,A,A*68

$GPRMC,024023.00,A,3730.37305,N,12702.41957,E,0.345,,111124,,,A*7E

$GPVTG,,T,,M,0.345,N,0.638,K,A*2C

$GPGGA,024023.00,3730.37305,N,12702.41957,E,1,04,2.98,89.2,M,18.6,M,,*6D

$GPGSA,A,3,10,23,25,15,,,,,,,,,5.93,2.98,5.13*0A

$GPGSV,2,1,07,10,60,302,29,15,19,101,11,21,03,323,,23,67,180,29*7C

$GPGSV,2,2,07,24,43,049,20,25,35,164,32,32,,,31*70

$GPGLL,3730.37305,N,12702.41957,E,024023.00,A,A*63

$GPRMC,024024.00,A,3730.37288,N,12702.41909,E,0.586,,111124,,,A*7F

$GPVTG,,T,,M,0.586,N,1.085,K,A*24

$GPGGA,024024.00,3730.37288,N,12702.41909,E,1,04,2.98,89.0,M,18.6,M,,*67

$GPGSA,A,3,10,23,25,15,,,,,,,,,5.94,2.98,5.13*0D

$GPGSV,2,1,07,10,60,302,29,15,19,101,16,21,03,323,,23,67,180,30*73

$GPGSV,2,2,07,24,43,049,24,25,35,164,32,32,,,31*74

$GPGLL,3730.37288,N,12702.41909,E,024024.00,A,A*6B

$GPRMC,024025.00,A,3730.37205,N,12702.41732,E,0.757,,111124,,,A*73

$GPVTG,,T,,M,0.757,N,1.401,K,A*22

$GPGGA,024025.00,3730.37205,N,12702.41732,E,1,04,2.98,89.0,M,18.6,M,,*65

$GPGSA,A,3,10,23,25,15,,,,,,,,,5.94,2.98,5.14*0A

$GPGSV,2,1,07,10,60,302,30,15,19,101,20,21,03,323,,23,67,180,30*7E

$GPGSV,2,2,07,24,43,049,24,25,35,164,32,32,,,31*74

$GPGLL,3730.37205,N,12702.41732,E,024025.00,A,A*69

$GPRMC,024026.00,A,3730.37125,N,12702.41598,E,0.824,,111124,,,A*78

$GPVTG,,T,,M,0.824,N,1.525,K,A*2E

$GPGGA,024026.00,3730.37125,N,12702.41598,E,1,04,2.98,89.9,M,18.6,M,,*6C

$GPGSA,A,3,10,23,25,15,,,,,,,,,5.94,2.98,5.14*0A

$GPGSV,2,1,07,10,60,302,30,15,19,101,22,21,03,323,,23,67,180,30*7C

$GPGSV,2,2,07,24,43,049,24,25,35,164,32,32,,,31*74

$GPGLL,3730.37125,N,12702.41598,E,024026.00,A,A*69

$GPRMC,024027.00,A,3730.37066,N,12702.41477,E,0.653,,111124,,,A*71

$GPVTG,,T,,M,0.653,N,1.209,K,A*29

$GPGGA,024027.00,3730.37066,N,12702.41477,E,1,04,2.99,90.2,M,18.6,M,,*69

$GPGSA,A,3,10,23,25,15,,,,,,,,,5.95,2.99,5.14*0A

$GPGSV,2,1,07,10,60,302,30,15,19,101,24,21,03,323,,23,67,180,30*7A

$GPGSV,2,2,07,24,43,049,24,25,35,164,32,32,,,31*74

$GPGLL,3730.37066,N,12702.41477,E,024027.00,A,A*6E

$GPRMC,024028.00,A,3730.36957,N,12702.41276,E,0.280,,111124,,,A*79

$GPVTG,,T,,M,0.280,N,0.519,K,A*24

$GPGGA,024028.00,3730.36957,N,12702.41276,E,1,04,2.99,90.8,M,18.6,M,,*61

$GPGSA,A,3,10,23,25,15,,,,,,,,,5.95,2.99,5.15*0B

$GPGSV,2,1,07,10,60,302,30,15,19,101,26,21,03,323,,23,67,180,30*78

$GPGSV,2,2,07,24,43,049,24,25,35,164,31,32,,,30*76

$GPGLL,3730.36957,N,12702.41276,E,024028.00,A,A*6C

$GPRMC,024029.00,A,3730.36869,N,12702.41096,E,0.030,,111124,,,A*71

$GPVTG,,T,,M,0.030,N,0.055,K,A*20

$GPGGA,024029.00,3730.36869,N,12702.41096,E,1,04,2.99,91.0,M,18.6,M,,*69

$GPGSA,A,3,10,23,25,15,,,,,,,,,5.96,2.99,5.15*08

$GPGSV,2,1,07,10,60,302,30,15,19,101,26,21,03,323,,23,67,180,30*78

$GPGSV,2,2,07,24,43,049,24,25,35,164,30,32,,,29*7F

$GPGLL,3730.36869,N,12702.41096,E,024029.00,A,A*6D

$GPRMC,024030.00,A,3730.36773,N,12702.40904,E,0.182,,111124,,,A*76

$GPVTG,,T,,M,0.182,N,0.338,K,A*20

$GPGGA,024030.00,3730.36773,N,12702.40904,E,1,04,2.99,90.7,M,18.6,M,,*60

$GPGSA,A,3,10,23,25,15,,,,,,,,,5.96,2.99,5.15*08

$GPGSV,2,1,07,10,60,302,30,15,19,101,27,21,03,323,,23,67,180,30*79

$GPGSV,2,2,07,24,43,049,24,25,35,164,30,32,,,29*7F

$GPGLL,3730.36773,N,12702.40904,E,024030.00,A,A*62

$GPRMC,024031.00,A,3730.36698,N,12702.40752,E,0.053,,111124,,,A*73

$GPVTG,,T,,M,0.053,N,0.097,K,A*2B

$GPGGA,024031.00,3730.36698,N,12702.40752,E,1,04,2.99,90.7,M,18.6,M,,*68

$GPGSA,A,3,10,23,25,15,,,,,,,,,5.96,2.99,5.16*0B

$GPGSV,2,1,07,10,60,302,31,15,19,101,27,21,03,323,,23,67,180,30*78

$GPGSV,2,2,07,24,43,049,25,25,35,164,30,32,,,29*7E

$GPGLL,3730.36698,N,12702.40752,E,024031.00,A,A*6A

$GPRMC,024032.00,A,3730.36637,N,12702.40626,E,0.022,,111124,,,A*71

$GPVTG,,T,,M,0.022,N,0.041,K,A*26

$GPGGA,024032.00,3730.36637,N,12702.40626,E,1,04,3.00,90.4,M,18.6,M,,*6E

$GPGSA,A,3,10,23,25,15,,,,,,,,,5.97,3.00,5.16*0B

$GPGSV,2,1,07,10,60,302,31,15,19,101,27,21,03,323,,23,67,180,30*78

$GPGSV,2,2,07,24,43,049,25,25,35,164,30,32,,,30*76

$GPGLL,3730.36637,N,12702.40626,E,024032.00,A,A*6E

$GPRMC,024033.00,A,3730.36593,N,12702.40637,E,0.092,,111124,,,A*76

$GPVTG,,T,,M,0.092,N,0.171,K,A*2F

$GPGGA,024033.00,3730.36593,N,12702.40637,E,1,05,1.96,92.9,M,18.6,M,,*61

$GPGSA,A,3,10,23,25,32,15,,,,,,,,3.39,1.96,2.76*04

$GPGSV,2,1,07,10,60,302,31,15,19,101,27,21,03,323,,23,67,180,29*70

$GPGSV,2,2,07,24,43,049,25,25,35,164,30,32,35,301,30*42

$GPGLL,3730.36593,N,12702.40637,E,024033.00,A,A*62

$GPRMC,024034.00,A,3730.36547,N,12702.40717,E,0.022,,111124,,,A*70

$GPVTG,,T,,M,0.022,N,0.040,K,A*27

$GPGGA,024034.00,3730.36547,N,12702.40717,E,1,05,1.97,96.5,M,18.6,M,,*65

$GPGSA,A,3,10,23,25,32,15,,,,,,,,3.39,1.97,2.77*04

$GPGSV,2,1,07,10,60,302,32,15,19,101,26,21,03,323,,23,67,180,30*7A

$GPGSV,2,2,07,24,43,049,25,25,35,164,30,32,35,301,30*42

$GPGLL,3730.36547,N,12702.40717,E,024034.00,A,A*6F

$GPRMC,024035.00,A,3730.36522,N,12702.40755,E,0.021,,111124,,,A*77

$GPVTG,,T,,M,0.021,N,0.039,K,A*2A

$GPGGA,024035.00,3730.36522,N,12702.40755,E,1,05,1.97,98.6,M,18.6,M,,*6C

$GPGSA,A,3,10,23,25,32,15,,,,,,,,3.39,1.97,2.77*04

$GPGSV,2,1,07,10,60,302,31,15,19,101,25,21,03,323,,23,67,180,29*72

$GPGSV,2,2,07,24,43,049,25,25,35,164,29,32,35,301,29*42

$GPGLL,3730.36522,N,12702.40755,E,024035.00,A,A*6B

$GPRMC,024036.00,A,3730.36496,N,12702.40816,E,0.434,,111124,,,A*72

$GPVTG,,T,,M,0.434,N,0.804,K,A*2C

$GPGGA,024036.00,3730.36496,N,12702.40816,E,1,05,1.97,101.3,M,18.6,M,,*5D

$GPGSA,A,3,10,23,25,32,15,,,,,,,,3.40,1.97,2.77*0A

$GPGSV,2,1,07,10,60,302,30,15,19,101,24,21,03,323,,23,67,180,29*72

$GPGSV,2,2,07,24,43,049,25,25,35,164,29,32,35,301,29*42

$GPGLL,3730.36496,N,12702.40816,E,024036.00,A,A*6E

$GPRMC,024037.00,A,3730.36481,N,12702.40814,E,0.189,,111124,,,A*74

$GPVTG,,T,,M,0.189,N,0.350,K,A*25

$GPGGA,024037.00,3730.36481,N,12702.40814,E,1,05,1.97,101.9,M,18.6,M,,*52

$GPGSA,A,3,10,23,25,32,15,,,,,,,,3.40,1.97,2.77*0A

$GPGSV,2,1,07,10,60,302,30,15,19,101,23,21,03,323,,23,67,180,29*75

$GPGSV,2,2,07,24,43,049,25,25,35,164,29,32,35,301,29*42

$GPGLL,3730.36481,N,12702.40814,E,024037.00,A,A*6B

$GPRMC,024038.00,A,3730.36469,N,12702.40839,E,0.441,,111124,,,A*73

$GPVTG,,T,,M,0.441,N,0.817,K,A*2C

$GPGGA,024038.00,3730.36469,N,12702.40839,E,1,05,1.97,103.0,M,18.6,M,,*5F

$GPGSA,A,3,10,23,25,32,15,,,,,,,,3.40,1.97,2.77*0A

$GPGSV,2,1,07,10,60,302,30,15,19,101,21,21,03,323,,23,67,180,29*77

$GPGSV,2,2,07,24,43,049,25,25,35,164,29,32,35,301,29*42

$GPGLL,3730.36469,N,12702.40839,E,024038.00,A,A*6D

$GPRMC,024039.00,A,3730.36469,N,12702.40867,E,0.061,,111124,,,A*7F

$GPVTG,,T,,M,0.061,N,0.114,K,A*20

$GPGGA,024039.00,3730.36469,N,12702.40867,E,1,05,1.97,104.0,M,18.6,M,,*52

$GPGSA,A,3,10,23,25,32,15,,,,,,,,3.40,1.97,2.77*0A

$GPGSV,2,1,07,10,60,302,30,15,19,101,21,21,03,323,,23,67,180,29*77

$GPGSV,2,2,07,24,43,049,24,25,35,164,29,32,35,301,29*43

$GPGLL,3730.36469,N,12702.40867,E,024039.00,A,A*67

$GPRMC,024040.00,A,3730.36443,N,12702.40839,E,0.756,,111124,,,A*71

$GPVTG,,T,,M,0.756,N,1.400,K,A*22

$GPGGA,024040.00,3730.36443,N,12702.40839,E,1,05,1.97,104.7,M,18.6,M,,*58

$GPGSA,A,3,10,23,25,32,15,,,,,,,,3.40,1.97,2.77*0A

$GPGSV,2,1,07,10,60,302,30,15,19,101,19,21,03,323,,23,67,180,29*7C

$GPGSV,2,2,07,24,43,049,24,25,35,164,29,32,35,301,28*42

$GPGLL,3730.36443,N,12702.40839,E,024040.00,A,A*6A

$GPRMC,024041.00,A,3730.36420,N,12702.40823,E,0.913,,111124,,,A*71

$GPVTG,,T,,M,0.913,N,1.690,K,A*26

$GPGGA,024041.00,3730.36420,N,12702.40823,E,1,05,1.97,105.6,M,18.6,M,,*57

$GPGSA,A,3,10,23,25,32,15,,,,,,,,3.40,1.97,2.77*0A

$GPGSV,2,1,07,10,60,302,30,15,19,101,18,21,03,323,,23,67,180,29*7D

$GPGSV,2,2,07,24,43,049,23,25,35,164,28,32,35,301,28*44

$GPGLL,3730.36420,N,12702.40823,E,024041.00,A,A*65

$GPRMC,024042.00,A,3730.36438,N,12702.40874,E,0.433,,111124,,,A*76

$GPVTG,,T,,M,0.433,N,0.802,K,A*2D

$GPGGA,024042.00,3730.36438,N,12702.40874,E,1,05,1.97,105.8,M,18.6,M,,*51

$GPGSA,A,3,10,23,25,32,15,,,,,,,,3.40,1.97,2.77*0A

$GPGSV,2,1,07,10,60,302,31,15,19,101,16,21,03,323,,23,67,180,29*72

$GPGSV,2,2,07,24,43,049,23,25,35,164,28,32,35,301,27*4B

$GPGLL,3730.36438,N,12702.40874,E,024042.00,A,A*6D

$GPRMC,024043.00,A,3730.36447,N,12702.40905,E,0.625,,111124,,,A*7D

$GPVTG,,T,,M,0.625,N,1.158,K,A*2F

$GPGGA,024043.00,3730.36447,N,12702.40905,E,1,05,1.97,106.0,M,18.6,M,,*54

$GPGSA,A,3,10,23,25,32,15,,,,,,,,3.40,1.97,2.77*0A

$GPGSV,2,1,07,10,60,302,31,15,18,101,15,21,03,323,,23,67,180,29*70

$GPGSV,2,2,07,24,43,049,22,25,35,164,28,32,35,301,26*4B

$GPGLL,3730.36447,N,12702.40905,E,024043.00,A,A*63

$GPRMC,024044.00,A,3730.36416,N,12702.40873,E,0.279,,111124,,,A*73

$GPVTG,,T,,M,0.279,N,0.517,K,A*2C

$GPGGA,024044.00,3730.36416,N,12702.40873,E,1,05,1.97,106.4,M,18.6,M,,*53

$GPGSA,A,3,10,23,25,32,15,,,,,,,,3.41,1.97,2.78*04

$GPGSV,2,1,07,10,60,302,31,15,18,101,13,21,03,323,,23,67,180,29*76

$GPGSV,2,2,07,24,43,049,21,25,35,164,27,32,35,301,26*47

$GPGLL,3730.36416,N,12702.40873,E,024044.00,A,A*60

$GPRMC,024045.00,A,3730.36397,N,12702.40858,E,0.450,,111124,,,A*78

$GPVTG,,T,,M,0.450,N,0.833,K,A*2A

$GPGGA,024045.00,3730.36397,N,12702.40858,E,1,05,1.97,106.8,M,18.6,M,,*59

$GPGSA,A,3,10,23,25,32,15,,,,,,,,3.41,1.97,2.78*04

$GPGSV,2,1,07,10,60,302,31,15,18,101,14,21,03,323,,23,67,180,29*71

$GPGSV,2,2,07,24,43,049,20,25,35,164,27,32,35,301,26*46

$GPGLL,3730.36397,N,12702.40858,E,024045.00,A,A*66

$GPRMC,024046.00,A,3730.36326,N,12702.40749,E,0.749,,111124,,,A*75

$GPVTG,,T,,M,0.749,N,1.388,K,A*2B

$GPGGA,024046.00,3730.36326,N,12702.40749,E,1,05,1.98,107.7,M,18.6,M,,*5E

$GPGSA,A,3,10,23,25,32,15,,,,,,,,3.41,1.98,2.78*0B

$GPGSV,2,1,07,10,60,302,32,15,18,101,16,21,03,323,,23,67,180,29*70

$GPGSV,2,2,07,24,43,049,19,25,35,164,27,32,35,301,25*4F

$GPGLL,3730.36326,N,12702.40749,E,024046.00,A,A*60

$GPRMC,024047.00,A,3730.36258,N,12702.40635,E,0.415,,111124,,,A*7C

$GPVTG,,T,,M,0.415,N,0.769,K,A*2B

$GPGGA,024047.00,3730.36258,N,12702.40635,E,1,05,1.98,108.3,M,18.6,M,,*56

$GPGSA,A,3,10,23,25,32,15,,,,,,,,3.41,1.98,2.78*0B

$GPGSV,2,1,07,10,60,302,31,15,18,101,18,21,03,323,,23,67,180,29*7D

$GPGSV,2,2,07,24,43,049,17,25,35,164,27,32,35,301,25*41

$GPGLL,3730.36258,N,12702.40635,E,024047.00,A,A*63

$GPRMC,024048.00,A,3730.36192,N,12702.40532,E,0.799,,111124,,,A*75

$GPVTG,,T,,M,0.799,N,1.480,K,A*29

$GPGGA,024048.00,3730.36192,N,12702.40532,E,1,05,1.98,108.9,M,18.6,M,,*52

$GPGSA,A,3,10,23,25,32,15,,,,,,,,3.41,1.98,2.78*0B

$GPGSV,2,1,07,10,60,302,31,15,18,101,18,21,03,323,,23,67,180,29*7D

$GPGSV,2,2,07,24,43,049,15,25,35,164,27,32,35,301,24*42

$GPGLL,3730.36192,N,12702.40532,E,024048.00,A,A*6D

$GPRMC,024049.00,A,3730.36094,N,12702.40362,E,1.968,296.57,111124,,,A*60

$GPVTG,296.57,T,,M,1.968,N,3.644,K,A*31

$GPGGA,024049.00,3730.36094,N,12702.40362,E,1,05,1.98,109.4,M,18.6,M,,*5B

$GPGSA,A,3,10,23,25,32,15,,,,,,,,3.41,1.98,2.78*0B

$GPGSV,2,1,07,10,60,302,31,15,18,101,16,21,03,323,,23,67,180,29*73

$GPGSV,2,2,07,24,43,049,16,25,35,164,27,32,35,301,23*46

$GPGLL,3730.36094,N,12702.40362,E,024049.00,A,A*68

$GPRMC,024050.00,A,3730.36009,N,12702.40212,E,1.896,268.12,111124,,,A*6A

$GPVTG,268.12,T,,M,1.896,N,3.511,K,A*32

$GPGGA,024050.00,3730.36009,N,12702.40212,E,1,05,1.98,109.8,M,18.6,M,,*5D

$GPGSA,A,3,10,23,25,32,15,,,,,,,,3.41,1.98,2.78*0B

$GPGSV,2,1,07,10,60,302,31,15,18,101,14,21,03,323,,23,67,180,29*71

$GPGSV,2,2,07,24,43,049,12,25,35,164,28,32,35,301,21*4F

$GPGLL,3730.36009,N,12702.40212,E,024050.00,A,A*62

$GPRMC,024051.00,A,3730.35986,N,12702.40179,E,0.830,,111124,,,A*74

$GPVTG,,T,,M,0.830,N,1.538,K,A*27

$GPGGA,024051.00,3730.35986,N,12702.40179,E,1,05,1.98,109.7,M,18.6,M,,*50

$GPGSA,A,3,10,23,25,32,15,,,,,,,,3.42,1.98,2.78*08

$GPGSV,2,1,07,10,60,302,32,15,18,101,11,21,03,323,,23,67,180,30*7F

$GPGSV,2,2,07,24,43,049,14,25,35,164,29,32,35,301,22*4B

$GPGLL,3730.35986,N,12702.40179,E,024051.00,A,A*60

$GPRMC,024052.00,A,3730.35972,N,12702.40184,E,0.765,,111124,,,A*71

$GPVTG,,T,,M,0.765,N,1.416,K,A*25

$GPGGA,024052.00,3730.35972,N,12702.40184,E,1,04,19.38,110.1,M,18.6,M,,*66

$GPGSA,A,3,10,23,25,32,,,,,,,,,20.34,19.38,6.19*0C

$GPGSV,2,1,07,10,60,302,31,15,18,101,09,21,03,323,,23,67,180,30*75

$GPGSV,2,2,07,24,43,049,12,25,35,164,30,32,35,301,21*46

$GPGLL,3730.35972,N,12702.40184,E,024052.00,A,A*6A

$GPRMC,024053.00,A,3730.35954,N,12702.40171,E,1.071,,111124,,,A*7D

$GPVTG,,T,,M,1.071,N,1.983,K,A*27

$GPGGA,024053.00,3730.35954,N,12702.40171,E,1,04,19.39,110.4,M,18.6,M,,*6D

$GPGSA,A,3,10,23,25,32,,,,,,,,,20.35,19.39,6.18*0D

$GPGSV,2,1,07,10,60,302,31,15,18,101,09,21,03,323,,23,67,180,30*75

$GPGSV,2,2,07,24,43,049,11,25,35,164,30,32,35,301,21*45

$GPGLL,3730.35954,N,12702.40171,E,024053.00,A,A*65

$GPRMC,024054.00,A,3730.35915,N,12702.40106,E,1.610,253.12,111124,,,A*67

$GPVTG,253.12,T,,M,1.610,N,2.981,K,A*3E

$GPGGA,024054.00,3730.35915,N,12702.40106,E,1,04,19.40,110.8,M,18.6,M,,*6D

$GPGSA,A,3,10,23,25,32,,,,,,,,,20.36,19.40,6.18*00

$GPGSV,2,1,07,10,60,302,32,15,18,101,09,21,03,323,,23,67,180,31*77

$GPGSV,2,2,07,24,43,049,10,25,35,164,30,32,35,301,21*44

$GPGLL,3730.35915,N,12702.40106,E,024054.00,A,A*67

$GPRMC,024055.00,A,3730.35903,N,12702.40097,E,1.311,246.42,111124,,,A*6D

$GPVTG,246.42,T,,M,1.311,N,2.428,K,A*35

$GPGGA,024055.00,3730.35903,N,12702.40097,E,1,04,19.41,111.2,M,18.6,M,,*68

$GPGSA,A,3,10,23,25,32,,,,,,,,,20.37,19.41,6.18*00

$GPGSV,2,1,07,10,60,302,32,15,18,101,09,21,03,323,,23,67,180,31*77

$GPGSV,2,2,07,24,43,049,14,25,35,164,31,32,35,301,22*42

$GPGLL,3730.35903,N,12702.40097,E,024055.00,A,A*68

$GPRMC,024056.00,A,3730.36040,N,12702.40377,E,0.864,,111124,,,A*7E

$GPVTG,,T,,M,0.864,N,1.600,K,A*2E

$GPGGA,024056.00,3730.36040,N,12702.40377,E,1,05,1.98,111.2,M,18.6,M,,*57

$GPGSA,A,3,10,23,25,32,15,,,,,,,,3.42,1.98,2.79*09

$GPGSV,2,1,07,10,60,302,32,15,18,101,11,21,03,323,,23,67,180,31*7E

$GPGSV,2,2,07,24,43,049,15,25,35,164,32,32,35,301,22*40

$GPGLL,3730.36040,N,12702.40377,E,024056.00,A,A*6B

$GPRMC,024057.00,A,3730.35932,N,12702.40187,E,0.196,,111124,,,A*79

$GPVTG,,T,,M,0.196,N,0.363,K,A*2B

$GPGGA,024057.00,3730.35932,N,12702.40187,E,1,05,1.98,111.5,M,18.6,M,,*53

$GPGSA,A,3,10,23,25,32,15,,,,,,,,3.42,1.98,2.79*09

$GPGSV,2,1,07,10,60,302,33,15,18,101,14,21,03,323,,23,67,180,32*79

$GPGSV,2,2,07,24,43,049,16,25,35,164,32,32,35,301,23*42

$GPGLL,3730.35932,N,12702.40187,E,024057.00,A,A*68

$GPRMC,024058.00,A,3730.35903,N,12702.40149,E,0.115,,111124,,,A*7D

$GPVTG,,T,,M,0.115,N,0.213,K,A*26

$GPGGA,024058.00,3730.35903,N,12702.40149,E,1,05,1.99,111.9,M,18.6,M,,*51

$GPGSA,A,3,10,23,25,32,15,,,,,,,,3.43,1.99,2.79*09

$GPGSV,2,1,07,10,60,302,33,15,18,101,17,21,03,323,19,23,67,180,32*72

$GPGSV,2,2,07,24,43,049,18,25,35,164,31,32,35,301,22*4E

$GPGLL,3730.35903,N,12702.40149,E,024058.00,A,A*67

$GPRMC,024059.00,A,3730.35855,N,12702.40068,E,0.197,,111124,,,A*76

$GPVTG,,T,,M,0.197,N,0.364,K,A*2D

$GPGGA,024059.00,3730.35855,N,12702.40068,E,1,05,1.99,112.2,M,18.6,M,,*58

$GPGSA,A,3,10,23,25,32,15,,,,,,,,3.43,1.99,2.79*09

$GPGSV,2,1,07,10,60,302,32,15,18,101,18,21,03,323,17,23,67,180,31*71

$GPGSV,2,2,07,24,43,049,19,25,35,164,31,32,35,301,22*4F

$GPGLL,3730.35855,N,12702.40068,E,024059.00,A,A*66

$GPRMC,024100.00,A,3730.35798,N,12702.39960,E,0.251,,111124,,,A*73

$GPVTG,,T,,M,0.251,N,0.465,K,A*22

$GPGGA,024100.00,3730.35798,N,12702.39960,E,1,05,1.99,112.4,M,18.6,M,,*52

$GPGSA,A,3,10,23,25,32,15,,,,,,,,3.43,1.99,2.79*09

$GPGSV,2,1,07,10,60,302,32,15,18,101,19,21,03,323,16,23,67,180,31*71

$GPGSV,2,2,07,24,43,049,19,25,35,164,31,32,35,301,22*4F

$GPGLL,3730.35798,N,12702.39960,E,024100.00,A,A*6A

$GPRMC,024101.00,A,3730.35758,N,12702.39889,E,0.281,,111124,,,A*75

$GPVTG,,T,,M,0.281,N,0.521,K,A*2E

$GPGGA,024101.00,3730.35758,N,12702.39889,E,1,05,1.99,112.9,M,18.6,M,,*54

$GPGSA,A,3,10,23,25,32,15,,,,,,,,3.43,1.99,2.79*09

$GPGSV,2,1,07,10,60,302,33,15,18,101,18,21,03,323,16,23,67,180,31*71

$GPGSV,2,2,07,24,43,049,18,25,35,164,32,32,35,301,22*4D

$GPGLL,3730.35758,N,12702.39889,E,024101.00,A,A*61

$GPRMC,024102.00,A,3730.35744,N,12702.39853,E,0.378,,111124,,,A*7B

$GPVTG,,T,,M,0.378,N,0.700,K,A*28

$GPGGA,024102.00,3730.35744,N,12702.39853,E,1,05,1.99,112.8,M,18.6,M,,*5C

$GPGSA,A,3,10,23,25,32,15,,,,,,,,3.43,1.99,2.80*0F

$GPGSV,2,1,07,10,60,302,32,15,18,101,17,21,03,323,15,23,67,180,31*7C

$GPGSV,2,2,07,24,43,049,19,25,35,164,32,32,35,301,22*4C

$GPGLL,3730.35744,N,12702.39853,E,024102.00,A,A*68

$GPRMC,024103.00,A,3730.35703,N,12702.39763,E,0.617,,111124,,,A*79

$GPVTG,,T,,M,0.617,N,1.143,K,A*24

